substation_name,latitude,longitude,dno,headroom_mva
ALDERNEY,50.755851,-1.940832,SSEN England,2.4
ALDERSHOT,51.232226,-0.76998103,SSEN England,6.23831815
ALDERTON,51.555203,-2.2233876,SSEN England,0.6
ALRESFORD,51.088816,-1.1491999,SSEN England,-1.626055587
ALTON LOCAL,51.151139,-0.96575932,SSEN England,9.753994067
ANDOVER,51.217904,-1.4968164,SSEN England,21.5
ANDOVER EAST,51.215843,-1.4579957,SSEN England,9.4
ANDOVER TOWN,51.203772,-1.483129,SSEN England,4.8
ARBORFIELD,51.385867,-0.90996432,SSEN England,18
ARGYLE ROAD,50.784462,-0.67938668,SSEN England,12.52705745
ARNCOTT,51.858146,-1.1195824,SSEN England,7.249962371
ASCOT,51.411326,-0.68409816,SSEN England,14.5
ASHLING ROAD,50.854047,-0.80681949,SSEN England,1.9
ASHTON PARK,51.318628,-2.1859029,SSEN England,2.4
AVON RUBBER,51.377185,-2.1388135,SSEN England,1.4
BAGSHOT,51.363474,-0.69255137,SSEN England,9.857348525
BALL HILL,51.365765,-1.392107,SSEN England,7.113864166
BARTON STACEY,51.182169,-1.399417,SSEN England,1.4
BASINGSTOKE,51.269782,-1.0674396,SSEN England,12.81771853
BASSETT,50.941526,-1.4008417,SSEN England,11.56912906
BATH ROAD EAST,51.48041,-0.43035272,SSEN England,0.686319372
BATH ROAD WEST,51.480449,-0.47763041,SSEN England,8.572805532
BEACONSFIELD (END B/B),51.61202,-0.64865318,SSEN England,1.6
BEACONSFIELD (MIDDLE B/B),51.61202,-0.64865318,SSEN England,1.228858501
BEENHAM,51.417262,-1.1644013,SSEN England,5.838441982
BEMERTON,51.080303,-1.8360247,SSEN England,14.4
BERINSFIELD,51.654969,-1.1574654,SSEN England,12.35827151
BEVOIS VALLEY,50.916577,-1.3946894,SSEN England,8.364984557
BICESTER,51.893394,-1.1530295,SSEN England,60
BILLINGSHURST,51.026012,-0.45704322,SSEN England,0
BILSHAM,50.805731,-0.61956242,SSEN England,11
BINSTEAD,50.719488,-1.2022961,SSEN England,8.530290536
BIRDHAM,50.788584,-0.83856291,SSEN England,1.396228417
BISHOPS WALTHAM,50.946805,-1.1943989,SSEN England,8.315861966
BISHOPSTOKE,50.963804,-1.3397511,SSEN England,6.177464148
BITTERNE,50.915445,-1.3595965,SSEN England,3.353785249
BLACK BOURTON,51.732363,-1.5909089,SSEN England,6.8
BLANDFORD,50.849233,-2.1603205,SSEN England,14.5
BLEDDINGTON,51.901178,-1.6287369,SSEN England,0.625021864
BORDON,51.110823,-0.82634825,SSEN England,2.481255856
BOSCOMBE DOWN,51.168384,-1.7555755,SSEN England,6.194329415
BOSCOMBE EAST,50.731525,-1.8364924,SSEN England,12.48
BOURNE VALLEY,50.73132,-1.9134172,SSEN England,7.3
BOURTON,51.071236,-2.3244667,SSEN England,2.81
BOVINGTON,50.689904,-2.2288178,SSEN England,4.4
BOWERDEAN,51.636897,-0.73389355,SSEN England,-2.2
BRACKNELL,51.417065,-0.76360335,SSEN England,31.55024164
BRADFORD-ON-AVON,51.343847,-2.2704395,SSEN England,9.4
BRAMLEY GREEN,51.321716,-1.033725,SSEN England,10.83944623
BRANDON ROAD,50.783957,-1.0834193,SSEN England,9.463048861
BRAYWICK ROAD,51.518471,-0.72033112,SSEN England,4.311281235
BRENTFORD,51.491207,-0.30664901,SSEN England,-7.1
BROCKHAMPTON,50.847642,-0.99472808,SSEN England,14.59103922
BROCKHURST,50.815062,-1.158483,SSEN England,6.8126719
BROMHAM,51.392983,-2.0205036,SSEN England,2.6
BROOK STREET,51.265682,-1.0915307,SSEN England,16.69964858
BRUTON,51.114782,-2.4429037,SSEN England,2.7
BURFORD,51.810811,-1.6290442,SSEN England,1.79201182
BUSHEY,50.651464,-2.0343059,SSEN England,1.8
BUTTS ASH,50.849954,-1.4058504,SSEN England,6.577677567
CALNE,51.451457,-1.9938927,SSEN England,5.5
CAMBERLEY,51.327586,-0.7587053,SSEN England,53.60199363
DEAN GARDENS,51.51023,-0.32198298,SSEN England,0.3
HARVARD LANE,51.488491,-0.27272747,SSEN England,-1.4
CARTERTON,51.768376,-1.5918589,SSEN England,11.45772489
CASTLE CARY,51.07757,-2.5076407,SSEN England,5.4
CHURCH ROAD,51.434438,-0.46468734,SSEN England,11
CAVERSHAM,51.476173,-0.9717028,SSEN England,16.68898303
CENTRAL,50.72691,-1.8555358,SSEN England,3.57
CENTRAL BRIDGE,50.899208,-1.3957251,SSEN England,18.42266444
CERNE ABBAS,50.807908,-2.4819181,SSEN England,0.8
CHALVEY,51.504952,-0.60858214,SSEN England,35.23074729
CHANDLERS FORD,50.99173,-1.3816586,SSEN England,17.40021671
CHAPEL,50.905736,-1.3919713,SSEN England,2.56520884
CHARLBURY,51.862809,-1.478127,SSEN England,9.495320495
CHARMINSTER,50.737358,-2.4646274,SSEN England,3.7
CHICHESTER,50.858952,-0.69142141,SSEN England,5.982179583
CHICKERELL,50.623273,-2.4893718,SSEN England,5.40269125
CHILTON CANTELLO,50.992393,-2.601093,SSEN England,1.45
CHINEHAM,51.297658,-1.0675922,SSEN England,13.45340846
CHIPPING NORTON,51.938753,-1.5449165,SSEN England,5.287008537
CHISBRIDGE,51.595539,-0.84320641,SSEN England,4.103622453
CHISLEDON,51.518014,-1.7290952,SSEN England,10.69343345
CHOBHAM,51.359776,-0.60574616,SSEN England,3.789519671
CHOLSEY,51.558051,-1.1615505,SSEN England,6.754584114
CHRISTCHURCH,50.737671,-1.7789084,SSEN England,16
FELTHAM,51.443496,-0.40958817,SSEN England,13.8
CIRENCESTER TOWN,51.706175,-1.9614436,SSEN England,-1.6
CLARENCE ROAD,51.480746,-0.62393586,SSEN England,13.1
COCKLEBURY,51.46393,-2.1101146,SSEN England,18.9
CODFORD,51.155279,-2.0389563,SSEN England,3
COKES LANE,51.66737,-0.56643504,SSEN England,8.765154595
COLLEGE PARK,50.819978,-1.0659487,SSEN England,3.948502963
CORDWALLIS,51.528732,-0.72872194,SSEN England,9.162932074
CORFE MULLEN,50.764227,-2.0214576,SSEN England,17
CORSHAM,51.425098,-2.1917286,SSEN England,3.1
COTTISFORD,51.975494,-1.1421653,SSEN England,2.5
COURAGES,51.420707,-0.98045501,SSEN England,11.38804154
COVE,51.296164,-0.77631976,SSEN England,13.97788883
COWES POWER STATION,50.746401,-1.2850965,SSEN England,10.62768833
COWLEY LOCAL,51.723588,-1.1890402,SSEN England,4.312564607
COXMOOR WOOD,51.250818,-0.87983124,SSEN England,2.300060641
CREEKMOOR,50.746693,-1.9935414,SSEN England,9.69
CRICKLADE,51.638158,-1.8655681,SSEN England,6
CROCKERTON,51.189429,-2.1768679,SSEN England,5.3
CROOKHAM,51.273928,-0.83014011,SSEN England,11.38483024
CROWTHORNE,51.371953,-0.78787716,SSEN England,8.012212152
HOPE AND ANCHOR,51.436309,-0.37988329,SSEN England,22.4
DEDDINGTON,51.969442,-1.3212094,SSEN England,-0.029145175
DENHAM AVENUE,51.568618,-0.50430999,SSEN England,1.973540947
DEVIZES,51.347954,-1.9998646,SSEN England,3.5
DORCAN SOUTH,51.550424,-1.7232207,SSEN England,7.8
DORCHESTER,50.712414,-2.4388297,SSEN England,3.9
DOWN GRANGE,51.247996,-1.1187578,SSEN England,8.736489307
DRAKES WAY,51.569444,-1.7575741,SSEN England,7.6
DUNBRIDGE,51.034698,-1.5518549,SSEN England,1.541980031
EAST HOWE,50.755602,-1.9051219,SSEN England,7.1
EASTERTON,51.2917,-1.9788981,SSEN England,5.6
EASTHAMPSTEAD,51.39725,-0.76308822,SSEN England,10.48025171
EASTLEIGH NORTH,50.968257,-1.3544561,SSEN England,9.856546928
EASTNEY,50.787143,-1.0600205,SSEN England,12.10703732
NORTH FELTHAM,51.461977,-0.40377787,SSEN England,12
ELECTRIC HOUSE,50.721971,-1.8773104,SSEN England,5.98
ELMS ROAD,51.410027,-0.83594476,SSEN England,7.50665396
EMSWORTH,50.846951,-0.93802413,SSEN England,3.012418295
ENFORD,51.264402,-1.8046286,SSEN England,5.313325621
EYNSHAM,51.789462,-1.3890547,SSEN England,12.47337987
FAIRFORD,51.70359,-1.7927605,SSEN England,5.9
FARINGDON,51.652374,-1.5848353,SSEN England,1
FARLINGTON,50.839199,-1.0441625,SSEN England,15.27121946
FARNBOROUGH,51.277666,-0.73395721,SSEN England,14.25965765
FARNHAM,51.217907,-0.79125349,SSEN England,1.594472203
FARNHAM ROYAL,51.536415,-0.62307975,SSEN England,20.20905651
SUNGARD,51.468652,-0.3986786,SSEN England,41
FERNDOWN,50.805684,-1.9078023,SSEN England,20.3
FIVE OAKS,51.050213,-0.42282521,SSEN England,4
FLACKWELL HEATH,51.595422,-0.69247181,SSEN England,14.69061809
FLETCHWOOD,50.907764,-1.5206463,SSEN England,12.5883423
FORDINGBRIDGE,50.938981,-1.8011404,SSEN England,7.9
FRATTON PARK,50.797418,-1.0629078,SSEN England,9.082348294
FRENCHAY ROAD,51.770715,-1.2706149,SSEN England,9.641084577
FRESHWATER,50.681336,-1.5155246,SSEN England,8.602487454
FRIMLEY,51.313835,-0.74241777,SSEN England,5.45759785
FROME,51.231249,-2.3042947,SSEN England,17
FRYERS LANE,51.637261,-0.77409884,SSEN England,12.6790377
FULSCOT,51.601819,-1.2157563,SSEN England,5.474341742
FYFIELD,51.693127,-1.3900627,SSEN England,6.348725272
GABLE HEAD,50.794214,-0.97691849,SSEN England,18.06465524
GAMBLE ROAD,50.811859,-1.0820361,SSEN England,11.27169431
GERRARDS CROSS,51.581679,-0.5585536,SSEN England,1.475139927
GILLINGHAM,51.030903,-2.2839422,SSEN England,22.5
GODALMING,51.190421,-0.6170161,SSEN England,9.355699025
CAUSEWAY,51.43481,-0.52304188,SSEN England,50.3
GORDON ROAD,51.067234,-1.3132488,SSEN England,6.109156764
GORING,51.54174,-1.1318284,SSEN England,9.633153345
GRASSINGHAM ROAD,51.608826,-0.55492123,SSEN England,12.87797538
EGHAM,51.43264,-0.54804278,SSEN England,32.9
GREENHAM COMMON,51.376151,-1.283955,SSEN England,16.82232869
GREETHAM STREET,50.79759,-1.0869413,SSEN England,15.53645255
GROVE,51.603958,-1.4308355,SSEN England,-5.358875862
GUSSAGE ST MICHAEL,50.902226,-2.0207396,SSEN England,1.4
HAMBLE,50.876708,-1.3280906,SSEN England,13.84524569
HAMWORTHY,50.716829,-1.9998911,SSEN England,5.09
HAREFIELD,51.61028,-0.49947511,SSEN England,5.4430501
HARESTOCK,51.079193,-1.3460335,SSEN England,8.138549305
SIDNEY ROAD,51.435285,-0.50379132,SSEN England,45.9
HASLEMERE,51.077775,-0.72662903,SSEN England,1.668972838
HASLINGBOURNE,50.973539,-0.60288554,SSEN England,5.824358039
HAWKERIDGE,51.276215,-2.196039,SSEN England,1.6
HAWLEY,51.311848,-0.76789653,SSEN England,10.71725678
HEADINGTON,51.768803,-1.2124754,SSEN England,20.67141624
HEDGE END,50.938532,-1.3035037,SSEN England,1.092237024
HENLEY,51.535587,-0.90464784,SSEN England,13.42285244
HENSTRIDGE,50.972128,-2.3905287,SSEN England,12.5
HERRIARD,51.200071,-1.0457323,SSEN England,5.804529667
HIGH WYCOMBE,51.622252,-0.77742129,SSEN England,7.334098682
HIGH WYCOMBE TOWN,51.628953,-0.7545438,SSEN England,19.85640711
HILLINGDON,51.534129,-0.451964,SSEN England,8.825893517
HILSEA,50.829991,-1.0586351,SSEN England,15.54913986
HINCHESLEA,50.802919,-1.6067932,SSEN England,8.3
HINDHEAD,51.120751,-0.7350071,SSEN England,8.709151539
HINTON MARTELL,50.853785,-1.9913963,SSEN England,2.1
HITCHES LANE,51.286525,-0.86195584,SSEN England,16.5437518
HOEFORD,50.836544,-1.1797679,SSEN England,7.905941596
HOLES BAY,50.727215,-1.9910929,SSEN England,0
HOLWELL,51.200229,-2.3993971,SSEN England,4.4
HOMINGTON,51.033577,-1.8339219,SSEN England,9
HOOK,51.278548,-0.96049275,SSEN England,15.29445142
STANWELL,51.443975,-0.47612389,SSEN England,49.6
HORNDEAN,50.910418,-1.0018684,SSEN England,8.92169897
HOUGHTON,51.083998,-1.5190566,SSEN England,3.450889862
HOUNDMILLS,51.27174,-1.1099464,SSEN England,22.54754025
HUNGERFORD,51.41861,-1.5114998,SSEN England,4.824806077
HUNSTON,50.816718,-0.76711474,SSEN England,0.1
HURSTBOURNE TARRANT,51.270081,-1.4368458,SSEN England,0.963543784
JAYS CLOSE,51.246642,-1.0979948,SSEN England,9.721364768
KENNINGTON,51.706101,-1.2361258,SSEN England,1.008273355
KENTWOOD HILL,51.461438,-1.0355136,SSEN England,3.074791049
KIDDINGTON,51.915557,-1.3709747,SSEN England,12.04958373
KIDMORE END,51.498466,-0.99366056,SSEN England,6.424905305
KINGS RIDE,51.346119,-0.74431997,SSEN England,6.657738189
KINGSCLERE,51.33095,-1.2552777,SSEN England,2.884369744
KINTBURY,51.402073,-1.4600535,SSEN England,4.714319887
KNOWL HILL,51.504816,-0.80771168,SSEN England,2.353838926
Laburnum Road,51.246972,-0.76900031,SSEN England,10.70368542
LAMBOURN,51.501915,-1.521934,SSEN England,1.728998341
LANGLEY,50.810561,-1.360435,SSEN England,5.618150062
LANGLEY COURT,51.055166,-0.84785962,SSEN England,13.92826037
LARKHILL,50.949788,-2.6608023,SSEN England,10.2
LEAFIELD,51.835224,-1.5619245,SSEN England,2.238043084
SUNBURY CROSS,51.418306,-0.41873203,SSEN England,49.1
LECHLADE,51.702776,-1.6819781,SSEN England,2.3
LECKHAMPSTEAD,51.495955,-1.3681218,SSEN England,1.186684625
LEE-ON-SOLENT,50.799417,-1.1945652,SSEN England,11.70269699
LEIGH PARK,50.865889,-0.97620345,SSEN England,11.8019107
LITTLE HUNGERFORD,51.442159,-0.91692717,SSEN England,14.3867363
LITTLE MARLOW,51.582448,-0.75966907,SSEN England,11.24332427
LORDSHILL,50.94264,-1.4498898,SSEN England,15.51781429
LOVE LANE,51.413506,-1.320772,SSEN England,17.93217644
LOVELACE ROAD,51.789778,-1.270757,SSEN England,6.592149573
LYMINGTON,50.770427,-1.5515469,SSEN England,12.1
LYNEHAM,51.523244,-2.0107905,SSEN England,1.9
MAIDEN NEWTON,50.777853,-2.5809203,SSEN England,2.451105203
MAIDENHEAD,51.510519,-0.75516733,SSEN England,9.7
MALMESBURY,51.586238,-2.1127057,SSEN England,2.4
MANCHESTER ROAD,51.564843,-1.7813304,SSEN England,6.8
MANNINGTON,50.846777,-1.8935317,SSEN England,7.1
MARKET,50.835668,-0.7732902,SSEN England,11.83459008
MARLBOROUGH SOUTH,51.413071,-1.7239782,SSEN England,3.1
MAYBUSH,50.932545,-1.4545625,SSEN England,10.03865554
MELKSHAM TOWN,51.375831,-2.1426167,SSEN England,5.5
MEYRICK ROAD,50.853407,-0.99487409,SSEN England,6.906058842
MIDDLE WALLOP,51.159812,-1.5583093,SSEN England,2.4
MIDHURST,50.968682,-0.74631968,SSEN England,18.52055243
MILBORNE PORT,50.97618,-2.4581769,SSEN England,0.4
MILFORD,51.178561,-0.64632756,SSEN England,12.89418571
MILFORD-ON-SEA,50.739051,-1.6009933,SSEN England,3.4
MILL LANE,50.850032,-1.7926828,SSEN England,2.7
MILTON,51.625145,-1.2792202,SSEN England,4.040717227
MINCHINGTON,50.930117,-2.0559557,SSEN England,2
MINETY VILLAGE,51.626203,-1.9776039,SSEN England,10.7
MORTIMER,51.372583,-1.107289,SSEN England,7.004978716
MVEE,51.384081,-0.59139871,SSEN England,21.06944467
NETHERHAMPTON,51.061123,-1.8233211,SSEN England,7.62
NETLEY COMMON 11KV,50.905741,-1.3241885,SSEN England,3.852724175
NEW MILTON,50.753623,-1.6746266,SSEN England,8
NEW STREET,50.841745,-1.7850217,SSEN England,3.2
NEWPORT,50.703387,-1.2922503,SSEN England,7.6305815
NORMANDY,51.267587,-0.66518648,SSEN England,0.095455722
NORTH BADDESLEY,50.983265,-1.4588978,SSEN England,4.719905098
NORTH FAREHAM,50.863632,-1.1995839,SSEN England,-0.14247171
CANAL BANK 6.6KV,51.533702,-0.25795373,SSEN England,25.4
NORTH HINKSEY,51.736233,-1.2969614,SSEN England,3.001729
NORTHLEACH,51.82678,-1.8482202,SSEN England,6.4
NORTHOLT,51.536961,-0.39303821,SSEN England,11.33240128
NORTHUMBERLAND AVENUE,51.434236,-0.96264619,SSEN England,6.526767091
NUFFIELD,51.57579,-1.0153895,SSEN England,2.898507854
OAKRIDGE,51.278591,-1.0910467,SSEN England,19.79833678
OLD ROAD,51.753807,-1.200654,SSEN England,14.53094961
OSNEY,51.749568,-1.2749825,SSEN England,5.73896276
OVERTON,51.255014,-1.2553727,SSEN England,4.24536069
PADWORTH,51.390105,-1.1068476,SSEN England,1.71491818
PANGBOURNE,51.480757,-1.0947532,SSEN England,20.73033992
PARK GATE,50.871557,-1.2713317,SSEN England,8.182692319
PARK HOUSE,51.192777,-1.6702724,SSEN England,1.801600245
PARK NORTH,51.559474,-1.7409951,SSEN England,10.4
GOLDSMITHS,51.512781,-0.25641724,SSEN England,10.8
PARKSTONE NORTH,50.729707,-1.9557135,SSEN England,5.2
PARKSTONE SOUTH,50.708249,-1.9339239,SSEN England,20.6
PEACOCK FARM,51.411076,-0.78252935,SSEN England,6.4
LEAMINGTON PARK,51.51989,-0.26407339,SSEN England,3.8
PETERSFIELD,51.005395,-0.94421714,SSEN England,9.464326178
PETERSFIELD AVENUE,51.512992,-0.58759947,SSEN England,4.1
PETERSFINGER,51.063133,-1.7786479,SSEN England,0.8
PEWSEY,51.332175,-1.7902459,SSEN England,7.422671535
PIDDLETRENTHIDE,50.797069,-2.4246389,SSEN England,3.1
PINGEWOOD,51.40989,-1.0131186,SSEN England,6.229748673
PLAISTOW,51.056914,-0.54497086,SSEN England,10.38647261
PLESSEY,51.579107,-1.7649981,SSEN England,8.308471332
PLESSEY TITCHFIELD,50.859352,-1.2428073,SSEN England,17.14275703
POOLE (HILL STREET),50.714984,-1.9859111,SSEN England,6.87
PORTCHESTER,50.846379,-1.1201082,SSEN England,3.96263333
PORTLAND,50.564353,-2.4488323,SSEN England,6.3
PORTSMOUTH,50.793272,-1.1017811,SSEN England,27.08444302
PORTWAY,51.212183,-1.5088758,SSEN England,7.2
POYLE,51.46952,-0.51239019,SSEN England,4.938140666
PRESSED STEEL SWINDON,51.575925,-1.7566161,SSEN England,12.3
PRESTON CANDOVER,51.166193,-1.1306863,SSEN England,10.56997888
PUDDLETOWN,50.754371,-2.3667397,SSEN England,3.683461442
PULHAM,50.883844,-2.405384,SSEN England,2.785168313
PURBROOK,50.865998,-1.048631,SSEN England,4.602647483
PYESTOCK 33/11,51.284088,-0.81213017,SSEN England,17.49337015
QUARRY ROAD,51.549106,-1.780252,SSEN England,8.22
QUEENSMEAD,51.293632,-0.75276547,SSEN England,3.425263885
RAMSBURY,51.447303,-1.6074032,SSEN England,3.5
READING,51.458165,-0.92778979,SSEN England,9.802972372
READING TOWN,51.461561,-0.97162812,SSEN England,19
REDHILL,50.764869,-1.8806724,SSEN England,16.5
REDLANDS,50.639646,-2.46618,SSEN England,-1.1
REDLYNCH,50.984276,-1.7296603,SSEN England,0.98
REGENTS PARK,50.915584,-1.4427974,SSEN England,14.26776882
RISSINGTON,51.87431,-1.7221537,SSEN England,4.296551852
RIVERSIDE,51.401703,-1.3135866,SSEN England,0.573752898
ROCKBOURNE,50.959601,-1.8359651,SSEN England,0
ROMSEY,50.988266,-1.4871633,SSEN England,4.803425215
ROSE GREEN,50.786615,-0.72499246,SSEN England,12.59247079
ROSE HILL,51.723407,-1.2248894,SSEN England,9.761467819
ROWDEN,51.452378,-2.1337171,SSEN England,1.5
ROWNER PARK,50.803699,-1.1780298,SSEN England,21.19457007
RYDE,50.724336,-1.1576577,SSEN England,12.75168286
SALISBURY CENTRAL,51.073483,-1.7984814,SSEN England,14.36
SANDHURST,51.34132,-0.80121898,SSEN England,9.071701975
SANDOWN,50.662071,-1.1542019,SSEN England,3.490122928
SELSEY,50.741901,-0.78724992,SSEN England,2.612396931
SHAFTESBURY,51.009125,-2.2065547,SSEN England,0.7
SHALFLEET,50.696006,-1.4233004,SSEN England,8.773749065
SHANKLIN,50.634046,-1.1839465,SSEN England,18.19127953
SHERBORNE,50.961757,-2.5142939,SSEN England,5
SHIPTON OLIFFE,51.87048,-1.9449936,SSEN England,-0.3
SHIRLEY,50.92235,-1.4324589,SSEN England,14.37142841
SHRIVENHAM,51.589473,-1.6581151,SSEN England,8.4
SHROTON,50.9222,-2.2097116,SSEN England,10.31
PARK ROYAL,51.526078,-0.26963324,SSEN England,12.8
SILKSTEAD,51.018739,-1.3658454,SSEN England,5.884468245
SILVER STREET,51.449812,-0.96589104,SSEN England,8.225206163
SOMERFORD,50.741635,-1.7425521,SSEN England,7.01
SOUTH BERSTED,50.79829,-0.66719087,SSEN England,1.9
SOUTHBOURNE,50.72813,-1.8092022,SSEN England,7.7
SOUTHCOTE,51.436827,-1.0202497,SSEN England,10.48155587
SPARKFORD,51.027483,-2.560808,SSEN England,2.2
SPRING QUARRY WEST,51.41725,-2.2261794,SSEN England,20.2
SPRINGFIELD ROAD,51.51353,-0.39589488,SSEN England,11.22987262
ST CROSS,51.050812,-1.3267595,SSEN England,8.872040988
ST EBBES,51.748029,-1.2589141,SSEN England,9.099450004
ST JOHNS,51.394356,-1.324232,SSEN England,3.34196199
STANDLAKE,51.718523,-1.4379686,SSEN England,-2.460933754
STANTON FITZWARREN,51.617437,-1.7474106,SSEN England,5.5
CANAL BANK 11KV,51.533702,-0.25795373,SSEN England,0
STAPLEFORD,51.132937,-1.903181,SSEN England,6.01
STOKENCHURCH,51.642717,-0.88683647,SSEN England,1.763003206
STRATTON,51.598124,-1.7559923,SSEN England,15.14733292
GREENFORD,51.541319,-0.34753219,SSEN England,13.3
PERIVALE,51.533202,-0.3067492,SSEN England,23.8
SUNNINGHILL,51.399749,-0.65363807,SSEN England,12.00690544
SUTTON BENGER,51.519338,-2.0966001,SSEN England,-4.75
SUTTON LANE,51.49707,-0.52935732,SSEN England,12.3
SWANAGE,50.613373,-1.9729521,SSEN England,3.2
SWINDON,51.581428,-1.8217324,SSEN England,24.7
TADLEY,51.360594,-1.1719102,SSEN England,6.585261995
TAPLOW,51.522585,-0.67936622,SSEN England,9.06192463
TARRANT RUSHTON,50.865242,-2.0793804,SSEN England,0.71
TEFFONT,51.078269,-2.0037037,SSEN England,-0.5
TEMPLE FARM,51.547472,-0.78743054,SSEN England,1.03085139
TETBURY,51.639703,-2.1501205,SSEN England,3.5
THATCHAM,51.394786,-1.2430882,SSEN England,6.807971221
THE GREEN,51.503292,-0.38177388,SSEN England,1.311289968
THE MALL,51.454136,-0.97497561,SSEN England,7
THEALE,51.434443,-1.0698459,SSEN England,13.31354536
THRUXTON,51.209534,-1.5843176,SSEN England,1.2
TIDWORTH,51.245007,-1.6562893,SSEN England,8.5
TISBURY,51.061442,-2.0950136,SSEN England,3.45
TITCHFIELD,50.848253,-1.2328447,SSEN England,5.301682139
TONGHAM,51.23774,-0.73639986,SSEN England,13.59655673
TOOTHILL,51.554608,-1.8107888,SSEN England,34
TOTTON,50.919206,-1.4915785,SSEN England,8.905117222
TOWNHILL PARK,50.930737,-1.3588175,SSEN England,9.672048315
TRADING ESTATE,51.571523,-1.8067507,SSEN England,10.5
TRASH GREEN,51.413862,-1.0487087,SSEN England,2.128611335
TROWBRIDGE TOWN,51.321219,-2.2214012,SSEN England,9.2
TWYFORD,51.48058,-0.87198034,SSEN England,2.145978946
UNION STREET,51.748851,-1.2356369,SSEN England,12.62553721
UPPER HEYFORD,51.927122,-1.2488285,SSEN England,15
UPTON,51.50486,-0.54906267,SSEN England,3.2
UXBRIDGE,51.540502,-0.48759615,SSEN England,5.522335766
VELMORE,50.970668,-1.3898995,SSEN England,4.639931709
VENTNOR,50.597745,-1.2080428,SSEN England,20.96030466
VERWOOD,50.891468,-1.8916672,SSEN England,1.61
WALLINGFORD,51.601044,-1.1373111,SSEN England,2.640247226
WANTAGE,51.59208,-1.405361,SSEN England,6.749302694
WAREHAM TOWN,50.686764,-2.114099,SSEN England,2.04
WARFIELD,51.434774,-0.75039344,SSEN England,1.5
WARMINSTER,51.199972,-2.216983,SSEN England,6.5
WATERLOOVILLE,50.879042,-1.0349898,SSEN England,23.63245818
WATLINGTON,51.643147,-1.0027024,SSEN England,3.772192955
WELL END,51.583531,-0.7239315,SSEN England,2.3
WEST END,50.852019,-1.1885742,SSEN England,14.41490789
WEST GRAFTON VILLAGE,51.341068,-1.6476615,SSEN England,3.6
WEST HENDFORD,50.936657,-2.6417877,SSEN England,16.4
WEST STOUR,50.997316,-2.3191625,SSEN England,4.6
WESTBOURNE,50.72294,-1.8931036,SSEN England,13.7
WESTBURY,51.262792,-2.178325,SSEN England,10.9
WESTBURY CEMENT,51.272,-2.1721967,SSEN England,-9.9
WESTERN ESPLANADE,50.906059,-1.4094747,SSEN England,26.94730543
WESTON,50.886934,-1.3586937,SSEN England,14.34067227
WEYMOUTH,50.610662,-2.4614839,SSEN England,6.117383872
WHEATLEY,51.743825,-1.121125,SSEN England,5.567368962
WHITCHURCH,51.233538,-1.3436196,SSEN England,1.6
WHITELEY,50.876226,-1.2489868,SSEN England,3.466627918
WHITEWAY,51.726246,-1.9713441,SSEN England,22.4
WHITLEY WOOD,51.421348,-0.95423686,SSEN England,5.276475225
WILSON ROAD,51.454493,-1.0049612,SSEN England,12.11882509
WIMBORNE,50.799459,-1.9727891,SSEN England,0
WIMBORNE ST GILES,50.91356,-1.9582998,SSEN England,0.4
WINCANTON,51.048843,-2.4110034,SSEN England,5.83
WINDRUSH PARK,51.785493,-1.5176973,SSEN England,17.83492653
WINSMORE LANE,51.669439,-1.2854441,SSEN England,8.512021768
WINTERBOURNE KINGSTON,50.78261,-2.2193696,SSEN England,3.3
WINTON,50.743931,-1.8688628,SSEN England,0
WITNEY TOWN,51.784144,-1.481789,SSEN England,1.94129795
WOKINGHAM,51.402441,-0.85724149,SSEN England,20.0537259
WOODCOTE,51.529859,-1.0726605,SSEN England,0.659260141
WOODMILL LANE,50.937024,-1.3789827,SSEN England,15.42294325
WOODSTOCK,51.853959,-1.3510276,SSEN England,6.057214277
WOOLSTON,50.898975,-1.3736301,SSEN England,1.760713101
WOOTTON BASSETT,51.528968,-1.8920243,SSEN England,11.9
WOOTTON ROAD,51.681033,-1.2891524,SSEN England,4.141538691
WRECCLESHAM,51.192144,-0.8266165,SSEN England,17.08226936
WROUGHTON,51.532261,-1.7931348,SSEN England,13.3
WYCOMBE MARSH,51.618469,-0.72192637,SSEN England,6.2
WYMERING,50.844259,-1.0785172,SSEN England,17.68490418
YARNTON,51.805535,-1.3012215,SSEN England,16.71033627
YATTENDON,51.465194,-1.2283782,SSEN England,0.560317732
YATTON KEYNELL,51.480849,-2.184273,SSEN England,-0.8
YEOVIL,50.949369,-2.6036695,SSEN England,9.3
YETMINSTER,50.889965,-2.5658791,SSEN England,4
YIEWSLEY,51.517702,-0.47885336,SSEN England,21.90976236
ZETLAND ROAD,50.796791,-1.141628,SSEN England,9.445938434
Abernethy,56.33978076,-3.294173581,SSEN Scotland,4.791
Balbeggie,56.45137191,-3.340057104,SSEN Scotland,2.36
Bridge of Earn,56.34426834,-3.40353988,SSEN Scotland,4.72
Errol,56.39334153,-3.245568028,SSEN Scotland,0.45
Glendevon,56.20690918,-3.611999989,SSEN Scotland,6.3
Milnathort,56.23002809,-3.422644983,SSEN Scotland,3.950864833
Perth Harbour,56.382495,-3.427552,SSEN Scotland,3.713178044
Scone,56.41389574,-3.388965359,SSEN Scotland,10.90998977
Balaldie,57.79280869,-3.902234897,SSEN Scotland,1.55
Blackstand,57.603898,-4.1598772,SSEN Scotland,3.2
Contullich,57.70400993,-4.286486194,SSEN Scotland,0.05
Crosshills,57.70102123,-4.259023404,SSEN Scotland,8.070697648
Glastullich,57.76175311,-4.043618631,SSEN Scotland,6.245966296
Invergordon,57.69378298,-4.169871262,SSEN Scotland,2.968485464
Lealty,57.729142,-4.3643941,SSEN Scotland,0.5
Muirend,57.55876,-4.2663019,SSEN Scotland,3.4
Nigg,57.70155572,-4.023755761,SSEN Scotland,14.316
Peddieston,57.64520532,-4.109300555,SSEN Scotland,0.719
Tain,57.80621307,-4.061805843,SSEN Scotland,7.145624204
Carnoustie,56.50858171,-2.722490625,SSEN Scotland,1.996626484
Charles Avenue,56.56036892,-2.604330524,SSEN Scotland,-0.512191579
Elliot Depot,56.5538807,-2.615661325,SSEN Scotland,9.056110344
Hume Street,56.56120429,-2.58624344,SSEN Scotland,14.55412558
Redford,56.58624785,-2.71994419,SSEN Scotland,1.915435882
Aird,57.46108512,-7.352549009,SSEN Scotland,5.159725232
Clachan,57.55694964,-7.321430551,SSEN Scotland,0.41461093
Drimore,57.33636427,-7.364066596,SSEN Scotland,1.329531338
Loch Carnan,57.3644907,-7.270703299,SSEN Scotland,7.487
Pollachar,57.10635968,-7.368800815,SSEN Scotland,-0.319635837
Aigas,57.4287022,-4.577194755,SSEN Scotland,0.205
Comrie,57.566214,-4.6563935,SSEN Scotland,0.47
Conon Bridge,57.56623173,-4.425802591,SSEN Scotland,2.989702156
Conon Falls,57.943554,-4.4129424,SSEN Scotland,0.1
Dingwall,57.60341182,-4.445686847,SSEN Scotland,2.641548931
Kiltarlity,57.43695026,-4.495971331,SSEN Scotland,4.738
Marybank,57.54958616,-4.562537675,SSEN Scotland,1.07
Muir of Ord,57.50320973,-4.447935891,SSEN Scotland,3.842
North Kessock,57.50615985,-4.254734966,SSEN Scotland,1.102752149
Aviemore,57.18009468,-3.823656933,SSEN Scotland,14.169
Ballindalloch,57.39508748,-3.34471186,SSEN Scotland,11.5
Boat of Garten,57.2535675,-3.731915752,SSEN Scotland,1.6
Dalwhinnie,56.93320031,-4.241301184,SSEN Scotland,0.187239779
Grantown,57.31715152,-3.601043734,SSEN Scotland,9.019294846
Kingussie,57.07794279,-4.056680335,SSEN Scotland,9.399784404
Tomatin,57.34202803,-4.010312577,SSEN Scotland,1.274440999
Callander,56.23646621,-4.211969157,SSEN Scotland,2.458916889
Crieff,56.37748384,-3.85362842,SSEN Scotland,4.439
Dunblane,56.19081334,-3.969003587,SSEN Scotland,2.07065936
Forteviot,56.34551306,-3.546049982,SSEN Scotland,1.2
Gleneagles,56.2842598,-3.753560066,SSEN Scotland,4.18950948
Kippen,56.13460168,-4.15170175,SSEN Scotland,3.551657915
Brechin,56.72716119,-2.638977216,SSEN Scotland,4.91
Bridge of Dun,56.72037591,-2.556835271,SSEN Scotland,1.370030822
Glaxo,56.70775986,-2.452780008,SSEN Scotland,7.44
Inchbare,56.77830998,-2.644976543,SSEN Scotland,1.200463092
Logie Pert,56.77030806,-2.529006998,SSEN Scotland,3.874633051
Mill Road,56.70995881,-2.470119456,SSEN Scotland,4.450757359
Montrose North,56.72241059,-2.47177539,SSEN Scotland,4.568438866
St Cyrus,56.78107605,-2.412554062,SSEN Scotland,6.13
Achintee,57.41618013,-5.432294647,SSEN Scotland,2.42
Broadford,57.24815955,-5.936052141,SSEN Scotland,4.814008098
Kishorn Hill,57.4062641,-5.525787378,SSEN Scotland,0.648166403
Kyle,57.28100838,-5.70975147,SSEN Scotland,2.484333356
Lower Ollach,57.35535088,-6.137451507,SSEN Scotland,0.403753207
Nostie Bridge,57.28523099,-5.565572555,SSEN Scotland,4.23
Shieldaig,57.50762865,-5.646935133,SSEN Scotland,0.079
Skulamus,57.23259236,-5.880931065,SSEN Scotland,1.422429793
Brora,58.01375731,-3.85528601,SSEN Scotland,2.256413287
Dornoch,57.88276492,-4.030039585,SSEN Scotland,4.290529482
Golspie,57.97598308,-3.979917592,SSEN Scotland,1.798326612
Helmsdale,58.1165459,-3.658786108,SSEN Scotland,1.27
Burghmuir,56.39664,-3.487886307,SSEN Scotland,0.96
Goodlyburn,56.40493108,-3.458598285,SSEN Scotland,2.65690665
Inveralmond,56.415635,-3.4811013,SSEN Scotland,19.4
Redgorton,56.44284213,-3.499520557,SSEN Scotland,7.19
Thimblerow,56.39778292,-3.437715913,SSEN Scotland,11.07873216
Balliekine,55.59634018,-5.379399776,SSEN Scotland,0.278
Ballure,55.68895905,-5.638146308,SSEN Scotland,1.316
Brodick,55.57243766,-5.14255515,SSEN Scotland,0.45697124
Campbeltown,55.4271733,-5.612677701,SSEN Scotland,7.065499027
Claonaig,55.75451262,-5.397290069,SSEN Scotland,0.013
Dippen,55.58216071,-5.491719462,SSEN Scotland,0.123
Machrie,55.55315658,-5.329497356,SSEN Scotland,0.482288365
West Parkfergus,56.465597,-3.3195783,SSEN Scotland,6.916075704
Whiting Bay,58.575183,-3.7527792,SSEN Scotland,1.55929974
Overscaig,58.18805608,-4.728117417,SSEN Scotland,0.059
Rhiconich,58.42970941,-4.989349002,SSEN Scotland,0.608253659
Drumnadrochit,57.33428841,-4.488413788,SSEN Scotland,2.328944048
Charleston,56.47408467,-3.044831659,SSEN Scotland,4.032
Gourdie,56.47737724,-3.063777014,SSEN Scotland,2.164007057
Menzieshill,56.46695099,-3.041659387,SSEN Scotland,0.907
Ninewells,56.46342438,-3.054054317,SSEN Scotland,8.787881578
Butterbridge,56.24748261,-4.917881513,SSEN Scotland,0.13
Douglas Pier,56.15491882,-4.909403625,SSEN Scotland,0.453
Inveraray,56.24181321,-5.081041519,SSEN Scotland,0.467179813
Lochgoilhead,56.17535471,-4.898655178,SSEN Scotland,0.934080241
Strachur,56.16476312,-5.082923943,SSEN Scotland,0.067365575
Balnagask,57.13799145,-2.066815319,SSEN Scotland,14.928
Clayhills,57.1405229,-2.100002691,SSEN Scotland,6.438
Commerce Street,57.14739019,-2.087303639,SSEN Scotland,7.438
Craiginches,57.1276964,-2.08927985,SSEN Scotland,-0.474477866
Alyth,56.62039833,-3.246954872,SSEN Scotland,1.848647422
Blairgowrie,56.58581781,-3.324603113,SSEN Scotland,13.77933452
Caputh,56.54558621,-3.477127644,SSEN Scotland,8.33
Coupar Angus,56.53837717,-3.273458174,SSEN Scotland,1.907
Dalrulzion,56.70703748,-3.414502692,SSEN Scotland,0.591500678
Leoch,56.51425542,-3.042507858,SSEN Scotland,2.014432015
Craigiebuckler,57.13148942,-2.154030098,SSEN Scotland,20.42
Craigton Cults,57.12174895,-2.180082247,SSEN Scotland,0.498
Culter,57.0986554,-2.265564144,SSEN Scotland,1.583
Ruthrieston,57.12740431,-2.124285897,SSEN Scotland,14.1
Bettyhill,58.52369078,-4.220790647,SSEN Scotland,1.601330684
Coldbackie,58.50261839,-4.366748795,SSEN Scotland,1.73686956
Dounreay,58.575183,-3.7527792,SSEN Scotland,9.5
Forss,58.599337,-3.6774237,SSEN Scotland,1.6
Melvich,58.55220852,-3.916940129,SSEN Scotland,0.070042815
Constable Street,56.46580589,-2.960708267,SSEN Scotland,16.22490895
Overgate,56.45970642,-2.974681775,SSEN Scotland,20.95
Rosebank Street,56.46863991,-2.976363227,SSEN Scotland,26.4
Walton,56.4611783,-2.991568041,SSEN Scotland,17.2703312
Bruchag,55.7711627,-5.008685591,SSEN Scotland,1.013456788
Colintraive,55.92601059,-5.151381295,SSEN Scotland,0.068
Dunoon,55.9558872,-4.930669275,SSEN Scotland,15.96743045
Glendaruel,56.033333,-5.216667,SSEN Scotland,0.022
Innellan,55.89540145,-4.958199542,SSEN Scotland,5.121748786
Kames,55.89105552,-5.259000205,SSEN Scotland,1.749
Newton,56.14029965,-5.141053488,SSEN Scotland,-0.426
Otter Ferry,56.01066915,-5.316467455,SSEN Scotland,1.643821413
Rothesay,55.83698537,-5.05747761,SSEN Scotland,19.18683331
Sandbank,55.98976988,-4.963077997,SSEN Scotland,4.145
Drynoch,57.29855035,-6.299873567,SSEN Scotland,0.595
Dunvegan,57.43274932,-6.539650131,SSEN Scotland,3.724237763
Portree,57.42171943,-6.197275589,SSEN Scotland,4.827971946
Uig,57.59409024,-6.367399362,SSEN Scotland,1.23115226
Balmedie,57.25829972,-2.07546644,SSEN Scotland,4.448599655
Dyce North,57.20498861,-2.182194464,SSEN Scotland,3.593
Ellon,57.36093763,-2.076287847,SSEN Scotland,0.542055616
Harvest Avenue,57.196382,-2.2170965,SSEN Scotland,20.5
Kingseat,57.26791318,-2.174985918,SSEN Scotland,0.34
Stoneywood T3,57.19055,-2.1790237,SSEN Scotland,18.2
Ashgrove,57.64240229,-3.30059587,SSEN Scotland,3.894483488
Bilbohal,57.63695611,-3.328472076,SSEN Scotland,19.44587774
Burghead,57.70033078,-3.466967886,SSEN Scotland,7.790792297
Cumming Street,57.65011371,-3.316207839,SSEN Scotland,9.813500328
Elgin,57.66494449,-3.321545008,SSEN Scotland,5.862169413
Fochabers,57.62165806,-3.109302588,SSEN Scotland,8.000481511
Kinloss,57.63590706,-3.564382656,SSEN Scotland,11.5761474
Lhanbryde,57.63891311,-3.208642572,SSEN Scotland,3.203431168
Lossiemouth,57.7125072,-3.290602236,SSEN Scotland,8.273989355
Fasnakyle,57.32945659,-4.793110903,SSEN Scotland,0.368
Edzell,56.82465924,-2.599637028,SSEN Scotland,5.093845451
Inverbervie,56.84753591,-2.282781953,SSEN Scotland,3.38
Laurencekirk,56.82981561,-2.478216953,SSEN Scotland,9.535608753
Stonehaven,56.96178636,-2.233437231,SSEN Scotland,13.26520305
Aberchalder,57.09307198,-4.744013655,SSEN Scotland,0.133
Ardochy,57.178766,-4.520659,SSEN Scotland,0.1
Bunoich,57.14913924,-4.685034123,SSEN Scotland,1.649655309
Glen Laogh,57.066797,-4.8478845,SSEN Scotland,0.09
Glendoe,57.14300156,-4.644939899,SSEN Scotland,14.008
Invergarry,57.0685089,-4.807896857,SSEN Scotland,-0.046
Wester Drummond,57.182083,-4.5340079,SSEN Scotland,0.019
Annat,56.84259484,-5.142075745,SSEN Scotland,1.216823039
Arisaig,56.91190391,-5.836323828,SSEN Scotland,1.7100919
Corran,56.71792448,-5.22823608,SSEN Scotland,0.96
Glensanda,56.57077287,-5.539220253,SSEN Scotland,10.011
Glenuig,56.82707849,-5.816805562,SSEN Scotland,0.038
Inverlochy,56.8280802,-5.088384275,SSEN Scotland,4.605017196
Kingairloch,56.64833846,-5.640497006,SSEN Scotland,0.04
Kinlochmoidart,56.78408163,-5.743907475,SSEN Scotland,-0.022
Liddesdale,56.67426134,-5.623420919,SSEN Scotland,0.08
Lochaline,56.54350271,-5.776543035,SSEN Scotland,6.053
Mallaig,56.98586652,-5.826259633,SSEN Scotland,6.247866033
Pinegrove,56.81477562,-5.106245047,SSEN Scotland,3.589218192
Poor House,56.76684396,-5.736317331,SSEN Scotland,0.07
Rahoy,56.57820042,-5.7526085,SSEN Scotland,0.052
"Salen, Mull",56.72398638,-5.77725799,SSEN Scotland,-1.2
Shona Beag,56.80234993,-5.815114553,SSEN Scotland,0.053
Strontian,56.69805558,-5.570070556,SSEN Scotland,1.696351989
Fraserburgh,57.68649802,-2.024227087,SSEN Scotland,19.38652445
Achiltibuie,58.03068991,-5.361491623,SSEN Scotland,0.427710439
Aultbea,57.83882578,-5.582250946,SSEN Scotland,4.23964056
Conon Falls 2,57.57950996,-4.698551177,SSEN Scotland,0.183
Drumrunie,57.99895324,-5.103817207,SSEN Scotland,-0.2
Garbat Forest,57.67370988,-4.663457703,SSEN Scotland,0.09
Inverbroom,57.81441723,-5.06736639,SSEN Scotland,-0.134
Kerry Falls,57.68509284,-5.643413179,SSEN Scotland,3.665
Kinlochewe,57.60804837,-5.287106077,SSEN Scotland,0.047
Letterewe,57.67309369,-5.463736451,SSEN Scotland,0.094
Loch Glascarnoch,57.70612932,-4.827585491,SSEN Scotland,0.49
Lochcarron,57.419135,-5.4663853,SSEN Scotland,2.42
Lochinver,58.14790557,-5.238293879,SSEN Scotland,0.335
Minor Grudie,57.61952766,-4.832008862,SSEN Scotland,0.08
Ullapool,57.90139001,-5.156941985,SSEN Scotland,3.404024696
Culloden,57.48141944,-4.149190807,SSEN Scotland,3.778066038
Dalneigh,57.47485659,-4.24347627,SSEN Scotland,13.91916364
Errogie,57.27338398,-4.378662345,SSEN Scotland,-0.009
Foyers,57.25531414,-4.492469902,SSEN Scotland,4.566
Hilton,57.46018374,-4.213187299,SSEN Scotland,12.79743726
Inverarnie,57.3862013,-4.183710872,SSEN Scotland,1.597843355
Inverness,57.45386636,-4.246552016,SSEN Scotland,2.199819035
Raigmore,57.47334734,-4.195631584,SSEN Scotland,8.868064233
Waterloo Place,57.48266446,-4.231656861,SSEN Scotland,7.176595046
Aberlour,57.45195066,-3.254637737,SSEN Scotland,0.225364057
Buckie,57.66950712,-2.952311374,SSEN Scotland,13.33507867
Cullen,57.67254344,-2.813251121,SSEN Scotland,2.403720022
Dufftown,57.44271539,-3.133518194,SSEN Scotland,0.131341106
Huntly,57.44080417,-2.788577282,SSEN Scotland,8.56858468
Insch,57.34685796,-2.614782433,SSEN Scotland,0.01
Keith,57.54027935,-2.938334223,SSEN Scotland,8.5
Limehillocks,57.5439002,-2.80197129,SSEN Scotland,0.848895256
Marnoch,57.56547817,-2.637598806,SSEN Scotland,2.302742611
Rothes,57.53161469,-3.205740113,SSEN Scotland,0.543595081
Cashlie,56.54749371,-4.429939459,SSEN Scotland,0.778
Chaorach,56.414816,-4.5074531,SSEN Scotland,3.7
Coshieville,56.61387002,-4.002612519,SSEN Scotland,0.558784877
Killin Town,56.46430908,-4.323650434,SSEN Scotland,1.43
Loch Lubnaig,56.295147,-4.304893,SSEN Scotland,0.07
Lochearnhead,56.38869972,-4.28931867,SSEN Scotland,2.554190302
Wester Drummond 2,56.577519,-4.082719,SSEN Scotland,0.019
Glencoe,56.68244934,-5.092689991,SSEN Scotland,3.84956846
Kinlochleven,56.71461923,-4.954314481,SSEN Scotland,1.110038344
Banchory,57.05669291,-2.508377176,SSEN Scotland,2.661987933
Fyvie,57.42846293,-2.388671682,SSEN Scotland,-0.3
Inverurie,57.28516353,-2.405318297,SSEN Scotland,12.6
Kemnay,57.24115299,-2.446005426,SSEN Scotland,11.41182262
Methlick,57.4216348,-2.245754204,SSEN Scotland,2.83
Midmar,57.15165103,-2.526367447,SSEN Scotland,2.049193532
Oldmeldrum,57.33638992,-2.306316263,SSEN Scotland,2.53
Park,57.08542806,-2.346339842,SSEN Scotland,3.719250011
Skene,57.14899155,-2.295766602,SSEN Scotland,15.14553822
Torryburn,57.231121,-2.347342218,SSEN Scotland,14.24873008
Lairg,58.03061379,-4.392786981,SSEN Scotland,1.05
Torboll,57.9745213,-4.101881738,SSEN Scotland,0.08
Tressady,58.0033845,-4.192297053,SSEN Scotland,-0.21
Friokheim,56.63386405,-2.672668025,SSEN Scotland,1.566425297
Inverarity,56.58642582,-2.90441343,SSEN Scotland,4.229852698
Lochside,56.6435188,-2.895953422,SSEN Scotland,8.620988885
Lunanhead,56.65438431,-2.865370858,SSEN Scotland,-1.47
Maryton,56.66548568,-2.993472767,SSEN Scotland,7.791856896
Lochee,56.47078273,-3.006905134,SSEN Scotland,16.64
Lyndhurst,56.48110547,-3.017432214,SSEN Scotland,9.542554285
MacAlpine Road,56.4912128,-3.007947092,SSEN Scotland,7.16
West Kirkton,56.49230789,-2.989146647,SSEN Scotland,13.0505229
MacDuff,57.66407315,-2.49839807,SSEN Scotland,13.52032485
Portsoy,57.67327455,-2.697560555,SSEN Scotland,2.874184491
Turriff,57.54171995,-2.462576771,SSEN Scotland,3.9
Ashludie,56.49159561,-2.826264415,SSEN Scotland,0.432865011
Baldovie,56.47824526,-2.889987606,SSEN Scotland,10.77957926
Broughty Ferry,56.46592677,-2.867317075,SSEN Scotland,1.44
Edzell Street,56.47775845,-2.860360316,SSEN Scotland,7.093845451
Longhaugh,56.49269784,-2.931097566,SSEN Scotland,14.1742579
Milton of Craigie,56.4753818,-2.924682411,SSEN Scotland,13.65020805
Old Craigie Road,56.47771526,-2.940676057,SSEN Scotland,2.919354841
Latheron,58.28395385,-3.367246921,SSEN Scotland,4.117058454
Wick,58.44205409,-3.105134182,SSEN Scotland,14.95310315
Arderseir,57.57733403,-4.00037933,SSEN Scotland,2.732534056
Dalcross,57.53978838,-4.067532735,SSEN Scotland,6.808601008
Forres,57.61441679,-3.619257757,SSEN Scotland,5.79016328
Lethen,57.53442952,-3.800376186,SSEN Scotland,1.070844204
Nairn Central,57.58288953,-3.866509946,SSEN Scotland,4.790923694
Bridge of Don,57.18244026,-2.098743339,SSEN Scotland,7.688706959
Haudagain,57.17234805,-2.143450493,SSEN Scotland,15.97037696
St Machar,57.16372426,-2.107708797,SSEN Scotland,15.48
Stoneywood Mills T3,57.19041702,-2.178921149,SSEN Scotland,-13.376
Stoneywood T1 T2,57.19041702,-2.178921149,SSEN Scotland,13.33
Whitestripes,57.19023284,-2.119943953,SSEN Scotland,7.666
Peterhead Grange,57.50869061,-1.805750919,SSEN Scotland,9.912546404
Peterhead North St,57.508074,-1.776852,SSEN Scotland,12
Boddam,57.47270916,-1.797929752,SSEN Scotland,8.475071114
Arigh-na-Brodaig,55.91839829,-5.42869682,SSEN Scotland,0.03
Bowmore,55.76080712,-6.273310594,SSEN Scotland,4.890599351
Crinan,56.07301117,-5.54255222,SSEN Scotland,-0.05
Cromalt,56.223619,-5.0922433,SSEN Scotland,1.6
Furnace Quarry,56.15174337,-5.176720804,SSEN Scotland,2.13
Inverneil,55.96983902,-5.450221694,SSEN Scotland,0.971536481
Lochgilphead,56.04029755,-5.435611766,SSEN Scotland,-1.57
Lussagiven,56.01555055,-5.796680093,SSEN Scotland,0.064
Port Askaig,55.8434053,-6.121552162,SSEN Scotland,1.278937714
Port Ellen,55.63153646,-6.188639497,SSEN Scotland,1.32
Stonefield,55.90609552,-5.421289678,SSEN Scotland,0.27
"Tarbert, Jura",55.97258186,-5.839106357,SSEN Scotland,0.16
"Tarbert, Loch Fyne",55.86184998,-5.421244577,SSEN Scotland,2.804
Quoich,57.069517,-5.1076518,SSEN Scotland,1
Blackmount,56.53383786,-4.764672774,SSEN Scotland,0.06
Bridge of Gaur,56.68770448,-4.439547259,SSEN Scotland,0.54
Glen Etive,56.6532631,-4.842386563,SSEN Scotland,0.26
Tyndrum,56.44022714,-4.712157917,SSEN Scotland,0.62
Craiginches 2,57.12772,-2.0893596,SSEN Scotland,14.6
Kincorth,57.12017123,-2.093374349,SSEN Scotland,0.755167069
Newtonhill,57.03387412,-2.163262489,SSEN Scotland,2.418279335
Redmoss,57.10819924,-2.091406503,SSEN Scotland,6.057101112
Gledfield,57.88459886,-4.381769668,SSEN Scotland,0.922224073
Shin,57.94353844,-4.413218021,SSEN Scotland,2.11
Sloy,56.2510958,-4.711674096,SSEN Scotland,4.45
Comrie 2,56.377967,-3.995171,SSEN Scotland,0.07
Dalchonzie,56.37276914,-4.040374403,SSEN Scotland,3.964431344
Arnish,58.187261,-6.386095,SSEN Scotland,4.98
Barvas,58.34850914,-6.520492148,SSEN Scotland,-0.800271912
Battery Point,58.20335282,-6.37365065,SSEN Scotland,2.532988841
Callanish,58.20284383,-6.733211404,SSEN Scotland,0.313915169
Coll,58.27752511,-6.308322983,SSEN Scotland,3.972253867
Gisla,58.12777937,-6.879552672,SSEN Scotland,0.35
Harris Grid,57.8456155,-6.830307395,SSEN Scotland,30
Laxay,58.10575596,-6.526859021,SSEN Scotland,0.81224091
Maaruig,57.95737092,-6.749443527,SSEN Scotland,0.1
Stornoway Grid,58.20332798,-6.422808763,SSEN Scotland,30
Aberfoyle,56.16732802,-4.365538221,SSEN Scotland,0.624494528
Blairlinnans,56.0324145,-4.558024724,SSEN Scotland,2.164
Drymen,56.06101811,-4.434859102,SSEN Scotland,3.324042124
Kepculloch,56.09475531,-4.350638483,SSEN Scotland,2.576196573
Killearn,56.05051479,-4.38891376,SSEN Scotland,4.257587712
Hatton,57.42643973,-1.894396039,SSEN Scotland,1.900186644
Maud,57.51753255,-2.126389271,SSEN Scotland,4.63
Mintlaw,57.52811333,-1.986678526,SSEN Scotland,8.1
New Pitsligo,57.58357237,-2.193488093,SSEN Scotland,0.528097651
Strichen,57.58625307,-2.070237189,SSEN Scotland,11.86659922
Aboyne,57.0769512,-2.792610183,SSEN Scotland,8.06764235
Ballater,57.06097075,-3.031462748,SSEN Scotland,8.6
Mossat,57.26669947,-2.872595228,SSEN Scotland,0.7
Strathdon,57.19362932,-3.03844321,SSEN Scotland,1.599
Whitehouse,57.2246438,-2.636624199,SSEN Scotland,2.755286721
Barcaldine,56.52741383,-5.312665588,SSEN Scotland,1.432921329
Bonawe,56.45057471,-5.227888992,SSEN Scotland,0.38
Connel,56.45152046,-5.389545484,SSEN Scotland,6.441759765
Dalmally,56.39850043,-4.99049874,SSEN Scotland,0.156
Dervaig (incl Tiree),56.58204098,-6.195863846,SSEN Scotland,4.305279645
Eredine,56.23351557,-5.274534063,SSEN Scotland,0.08
Kenmore,56.45611357,-5.242003001,SSEN Scotland,0.185
Kerrera,56.39394608,-5.528242181,SSEN Scotland,0.19
Kilchrenan,56.36588992,-5.183000649,SSEN Scotland,0.264750278
Kilmelford,56.27313994,-5.489374565,SSEN Scotland,0.5
Kilninver,56.34274579,-5.512039314,SSEN Scotland,0.64
Kinloch,56.37224043,-6.010304356,SSEN Scotland,1.1
Lochdonhead,56.44453418,-5.686144507,SSEN Scotland,-0.15
Oban,56.4074857,-5.475934596,SSEN Scotland,10.04216912
"Salen, Acharacle",56.51484392,-5.947518111,SSEN Scotland,0.39
Scammadale,56.31984388,-5.491199987,SSEN Scotland,0.019
Taynuilt,56.43018243,-5.214968866,SSEN Scotland,1.100880509
Tiroran Bridge,56.38380897,-6.073100302,SSEN Scotland,0.037
Burgar Hill,59.1164807,-3.146725438,SSEN Scotland,6.08
Eday,59.18524174,-2.765759133,SSEN Scotland,0.785658618
Flotta,58.83332532,-3.127310705,SSEN Scotland,7.85
Forss 2,58.59933609,-3.677417136,SSEN Scotland,1.890343711
Halkirk,58.50350582,-3.490380956,SSEN Scotland,0.421211421
Hastigrow,58.52886096,-3.262531335,SSEN Scotland,2.154797141
Kirkwall,58.98242988,-2.964322658,SSEN Scotland,8.3
Lyness,58.83342642,-3.208218122,SSEN Scotland,0.271427752
Mount Pleasant,58.58966698,-3.503341662,SSEN Scotland,10.03053178
North Hoy,58.9037905,-3.29172617,SSEN Scotland,0.033
Ormlie,58.58546707,-3.536676358,SSEN Scotland,8.506682099
Rousay,59.15818701,-2.98312878,SSEN Scotland,0.7
Sanday,59.20704043,-2.68143791,SSEN Scotland,0.232024248
Shapinsay,59.03821123,-2.902372188,SSEN Scotland,0.491794381
St Mary's,58.89660615,-2.922070115,SSEN Scotland,1.2
Stromness,58.97441004,-3.289194263,SSEN Scotland,2.699112482
Stronsay,59.12848348,-2.621110801,SSEN Scotland,0.548994622
Westray,59.23835269,-2.874358211,SSEN Scotland,-0.6
Aberfeldy,56.61755677,-3.877377959,SSEN Scotland,3.04
Bonskeid,56.72479359,-3.784166999,SSEN Scotland,1.125725023
Calvine,56.76356854,-3.961622322,SSEN Scotland,1.272088615
Fincastle,56.72848813,-3.832449771,SSEN Scotland,0.058
Kinloch Rannoch,56.69891189,-4.191141756,SSEN Scotland,1.268697586
Pitlochry,56.71093244,-3.704487109,SSEN Scotland,1.65
Tummel Bridge,56.70687791,-4.028590807,SSEN Scotland,1.808989286
Denburn,57.14791206,-2.109329345,SSEN Scotland,6.35066472
Greyfriars,57.15446875,-2.095402563,SSEN Scotland,2.955434758
Hayton,57.17096815,-2.12148066,SSEN Scotland,16.27070602
St Nicholas,57.15186894,-2.105149547,SSEN Scotland,1.104159864
Queens Lane North,57.14323754,-2.130129317,SSEN Scotland,-1.44
Springhill,57.14855707,-2.169391131,SSEN Scotland,6.889406769
Woodhill,57.15426579,-2.146123043,SSEN Scotland,8.760675459
Brae,60.40164,-1.3477523,SSEN Shetland,1.845453216
Firth,60.448888,-1.2027119,SSEN Shetland,3.462145516
Gremista (Lerwick),60.166622,-1.1645091,SSEN Shetland,27.7
Gutcher,60.67591,-1.0036359,SSEN Shetland,3.118443171
Mid Yell,60.6035,-1.1221279,SSEN Shetland,4.328950723
Scalloway,60.139181,-1.2564688,SSEN Shetland,3.572850609
Setter Sandwick,60.016169,-1.2289716,SSEN Shetland,1.272742754
Sumburgh,59.898043,-1.3046518,SSEN Shetland,1.65592868
Tumblin,60.263133,-1.3993035,SSEN Shetland,2.73
Unst,60.798492,-0.82632476,SSEN Shetland,2.38203227
Voe,60.349646,-1.255726,SSEN Shetland,4.63471132
Aaronsons,51.0224,-3.8752,NGED,2.75
Abbeywood Primary,51.505,-2.5614,NGED,-0.56
Aberaeron,52.2336,-4.2563,NGED,2.44
Abercrave,51.7946,-3.691,NGED,10.73
Aberdare,51.7134,-3.4536,NGED,4.95
Abergavenny Primary,51.8394,-3.0135,NGED,7.88
Aberpergwm,51.7392,-3.6398,NGED,9.54
Abersychan,51.7211,-3.0668,NGED,5.38
Abertillery,51.7276,-3.1357,NGED,6.65
Abertysswg,51.7437,-3.2656,NGED,3.13
Abington 33/11kv,52.2478,-0.8765,NGED,9.41
Acreage Lane 33 11kv S Stn,53.1954,-1.2081,NGED,-18.2
Adelaide Road,50.3694,-4.1486,NGED,9.99
Albrighton 33/11kv,52.6373,-2.2497,NGED,7.62
Alcombe,51.1997,-3.4648,NGED,10.08
Alderton 66/11kv,51.9913,-1.9982,NGED,5.64
Alexandra Road,50.4082,-4.1354,NGED,9.53
Alford 33 11kv S Stn,53.2547,0.1883,NGED,1.86
Allenton 33 11kv S Stn,52.8939,-1.4531,NGED,19.99
Alma Road,50.3835,-4.1544,NGED,12.41
Almondsbury,51.5499,-2.5695,NGED,10.77
Alveston 33/11kv,51.5941,-2.521,NGED,3.84
Ambergate 33/11kv,53.0628,-1.4824,NGED,14.87
Ammanford Primary,51.7728,-4.0298,NGED,
Anderson Lane 33 11kv S Stn,53.2426,-0.5393,NGED,7.93
Annesley (Kirkby) 11kv S Stn,53.0886,-1.245,NGED,9.79
Ansty 33 11kv S Stn,52.429,-1.401,NGED,13.16
Apollo 33 11kv S Stn,52.6382,-1.7101,NGED,6.22
Arley 33 11kv S Stn,52.502,-1.5755,NGED,5.56
Armada Street,50.3769,-4.1357,NGED,7.11
Arnold 33/11kv,53.0077,-1.1241,NGED,6.12
Asfordby 11kv S Stn,52.7811,-0.9292,NGED,
Ashbourne 33 11kv S Stn,53.0141,-1.7115,NGED,9.06
Ashburton,50.5196,-3.7447,NGED,2.78
Ashby De La Zouch 33/11kv,52.7585,-1.4808,NGED,12.29
Ashgrove,51.5174,-3.2173,NGED,1.7
Ashwater,50.7424,-4.2896,NGED,2.64
Athelstan Road,50.7235,-3.5225,NGED,5.8
Atherstone 33 11kv S Stn,52.585,-1.5492,NGED,4.07
Avonmouth Docks,51.5043,-2.7006,NGED,10.98
Avonmouth Primary,51.505,-2.6969,NGED,25.94
Axbridge,51.286,-2.8156,NGED,4.1
Axminster,50.7799,-2.9952,NGED,16.6
Bakewell 33 11kv S Stn,53.2165,-1.6893,NGED,6.72
Banbury Lane 33 11kv S Stn,52.2152,-0.9457,NGED,12.89
Banbury Road 33 11kv S Stn,52.2577,-1.5649,NGED,8
Bardon 33 11kv S Stn,52.7138,-1.3478,NGED,13.66
Barnstaple Quay,51.0799,-4.0626,NGED,10.47
Barry Grid Primary,51.4143,-3.2786,NGED,
Bartley Green 132/11kv,52.4412,-1.9864,NGED,10.78
Barton Under Needwood 33 11kv S Stn,52.7583,-1.7045,NGED,13.59
Barton.,50.4887,-3.5363,NGED,11.52
Barwell 33 11kv S Stn,52.5828,-1.3384,NGED,2.55
Bath Road Primary,51.1419,-2.9814,NGED,-11.8
Bath University 33,51.3771,-2.3279,NGED,-0.03
Batheaston,51.3975,-2.3385,NGED,33.9
Bayston Hill 33/11kv,52.6764,-2.7615,NGED,9.72
Beaminster,50.8117,-2.761,NGED,0.91
Bearstone 33/11kv,52.9474,-2.4119,NGED,2.87
Beaumont Leys 33/11kv,52.6695,-1.1544,NGED,13.74
Bedminster,51.4418,-2.5963,NGED,28.08
Beeston 33/11kv,52.9303,-1.2151,NGED,13.56
Beevor Street 33 11kv S Stn,53.2253,-0.5526,NGED,6.41
Belper 33/11kv,53.0155,-1.4767,NGED,6.07
Berkeley 33/11kv,51.7018,-2.4681,NGED,8.38
Berrington 33/11kv,52.6659,-2.685,NGED,1
Bevercotes 33 11kv S Stn,53.2619,-0.9599,NGED,15.67
Bevington 66/11kv,52.1734,-1.9437,NGED,10.61
Bideford Main,51.0124,-4.1985,NGED,3.84
Bilborough 33 11kv S Stn,52.962,-1.2133,NGED,12.04
Billingborough 33/11kv,52.8949,-0.365,NGED,2.85
Bilson 33/11kv,51.8225,-2.51,NGED,8.36
Bilsthorpe 33 11kv S Stn,53.1515,-1.0128,NGED,15.03
Bingham 33 11kv S Stn,52.9491,-0.9455,NGED,13.08
Birch Coppice 33 11kv S Stn,52.5924,-1.6266,NGED,27.96
Birchgrove,51.526,-3.2001,NGED,15.02
Birstall 33/11kv,52.6697,-1.1295,NGED,9.35
Bishops Castle 33/11kv,52.4917,-2.9944,NGED,1.02
Bishops Cleeve 66/11kv,51.9472,-2.0789,NGED,11.22
Bishopston,51.5872,-4.0472,NGED,3.86
Bishopsworth,51.4149,-2.6077,NGED,10.59
Biwater 33 11kv S Stn,53.174,-1.4055,NGED,2.07
Bixhead 33/11kv,51.7958,-2.5919,NGED,12.06
Blackawton,50.3475,-3.6824,NGED,6.18
Blackpool,50.345,-4.8316,NGED,19.56
Blackwell 33 11kv S Stn,53.1155,-1.3441,NGED,8.57
Blaenavon,51.7698,-3.0982,NGED,7.18
Blaenporth,52.1114,-4.5246,NGED,3.82
Blagdon 33/11kv S/S,51.3376,-2.7147,NGED,1.33
Bletchley 11kv S Stn,52.0115,-0.7443,NGED,14.37
Blidworth 33/11kv,53.0884,-1.1444,NGED,4.64
Bloxham 66/11kv,52.0314,-1.3865,NGED,3.04
Bodenham 66/11kv,52.1488,-2.6766,NGED,5.51
Bodmin,50.4734,-4.7339,NGED,11.14
Bolsover 11kv S Stn,53.2355,-1.3255,NGED,
Bolsover 33kv S Stn,53.2354,-1.3255,NGED,10.2
Boothen 33/11kv (Reporting),52.9964,-2.1809,NGED,13.77
Boothville 33 11kv S Stn,52.2715,-0.8579,NGED,15.3
Boots 33/11kv,52.924,-1.1879,NGED,7.02
Bottesford 33 11kv S Stn,52.9306,-0.8147,NGED,2.93
Boughton Road 132/11kv,52.4643,-1.8207,NGED,
Bourne 11kv S Stn,52.7657,-0.3842,NGED,
Bournville,51.3274,-2.9668,NGED,2.44
Bournville 132/11kv,52.4279,-1.9259,NGED,31.69
Boverton,51.4063,-3.4632,NGED,10.09
Bovey Tracey,50.5922,-3.68,NGED,2.07
Bower Ashton,51.4406,-2.6269,NGED,9.8
Bowhays Cross,51.1599,-3.3396,NGED,9.22
Brackley 11kv,52.049,-1.1455,NGED,13.1
Brackley Town 33 11kv S Stn,52.0273,-1.1377,NGED,7.55
Brackmills 33 11kv S Stn,52.2238,-0.8666,NGED,9.2
Bradley Lane,50.5294,-3.6184,NGED,8.29
Bradley Stoke,51.5473,-2.5595,NGED,9.78
Bratton Fleming,51.1244,-3.9366,NGED,3.64
Braunston Road 33 11kv S Stn,52.2612,-1.1752,NGED,6.06
Braunstone 33 11kv S Stn,52.61,-1.1626,NGED,7.79
Braunton,51.1152,-4.1495,NGED,14.13
Brawdy,51.8875,-5.0961,NGED,10.53
Brecon,51.9437,-3.3896,NGED,4.28
Bretby 33/11kv,52.7931,-1.5749,NGED,1.85
Bridell,52.0504,-4.6596,NGED,4.01
Bridge Mills,50.8015,-3.454,NGED,7.29
Bridgend Trading Estate,51.5034,-3.5664,NGED,10.12
Bridgwater Local,51.1293,-3.0081,NGED,7.23
Bridport,50.7369,-2.7616,NGED,9.18
Bristol International Airport,51.3806,-2.7064,NGED,9.3
British Gas Hallen,51.5293,-2.6544,NGED,8.61
British Gypsum 33/11kv,52.7416,-1.1198,NGED,
Briton Ferry Primary,51.625,-3.8215,NGED,6.36
Broad St.Barry,51.4034,-3.2726,NGED,7.12
Broadfield,51.7011,-4.7054,NGED,5.56
Broadway 66/11kv,52.0545,-1.8557,NGED,3.72
Broadweir Primary,51.4592,-2.5834,NGED,14.56
Brockworth 33/11kv,51.8451,-2.167,NGED,16.49
Bromyard 66/11kv,52.1862,-2.5004,NGED,4.36
Broseley 33/11kv,52.6106,-2.4844,NGED,2.73
Brotheridge Green 66/11kv,52.0715,-2.2622,NGED,0.72
Brownsover 33/11kv,52.3867,-1.2553,NGED,
Bruntingthorpe 33 11kv S Stn,52.4888,-1.1161,NGED,0.21
Brush 33/11kv,52.7815,-1.1937,NGED,22.9
Brynmawr,51.7963,-3.1749,NGED,7.71
Buckfastleigh,50.4805,-3.7687,NGED,2.25
Buckingham 33 11kv S Stn,51.9963,-0.9758,NGED,9.78
Buckwell Street,50.3696,-4.1378,NGED,11.58
Budby 33 11kv S Stn,53.2256,-1.0971,NGED,3.94
Budleigh Salterton,50.6303,-3.333,NGED,4.41
Bugbrooke 33/11kv,52.2147,-0.9988,NGED,2.44
Bugle,50.3996,-4.7948,NGED,3.83
Builth Wells,52.1552,-3.3721,NGED,6
Bulwell 33 11kv S Stn,53.0023,-1.1988,NGED,10.21
Burlescombe,50.947,-3.327,NGED,3.95
Burnham,51.2383,-2.9881,NGED,9.13
Burntwood 132/11kv,52.6802,-1.9479,NGED,97.96
Burslem 33/11/6.6 Kv,53.0507,-2.2026,NGED,
Burton 11kv,52.8156,-1.6239,NGED,
Burton Latimer 33 11kv S Stn,52.3639,-0.6952,NGED,7.79
Bushbury B-C 132/33kv & 132/11kv,52.6338,-2.113,NGED,23.55
Bustleholm 11kv Switch House,52.5538,-1.9619,NGED,28.76
Caerau Primary,51.6427,-3.6458,NGED,13.73
Caerphilly,51.5778,-3.2162,NGED,5.01
Cairns Road,51.4785,-2.6036,NGED,34.67
Caldicot,51.589,-2.7543,NGED,11.86
Callington,50.504,-4.3197,NGED,3.83
Callywith,50.4796,-4.7002,NGED,8.19
Calvert 33 11kv S Stn,51.9284,-0.9916,NGED,
Calverton 33 11kv S Stn,53.0473,-1.1028,NGED,-2.26
Camborne Carn Brea,50.2283,-5.2807,NGED,10.13
Camborne Holmans,50.2133,-5.2911,NGED,12.92
Camborne Treswithian,50.2233,-5.3225,NGED,1.33
Camp 33/11kv,51.7865,-2.1303,NGED,0.81
Campbell Park 33 11kv S Stn,52.0513,-0.7441,NGED,
Campbell Street 33/11kv,52.243,-0.8967,NGED,17.39
Campion Hills 33 11kv S Stn,52.2964,-1.516,NGED,5.87
Cannock 132/11kv,52.6827,-2.0185,NGED,46.73
Cannon Street 33 11kv S Stn,52.3051,-0.6892,NGED,12.16
Canton,51.4848,-3.204,NGED,8.47
Cardiff East Grid Primary,51.4968,-3.1439,NGED,14.22
Cardiff South Bsp,51.4653,-3.1554,NGED,24.79
Cardigan,52.0841,-4.6515,NGED,7.05
Carlton On Trent 33 11kv S Stn,53.1687,-0.8137,NGED,7.63
Castle Donington 33 11kv S Stn,52.841,-1.3617,NGED,8.46
Castle Road 33 11kv S Stn,52.9491,-1.1518,NGED,2.45
Cauldon 33/11kv,53.0412,-1.8862,NGED,5.28
Caythorpe 33 11kv S Stn,53.0069,-0.9917,NGED,11.86
Central Intake,50.3747,-4.1809,NGED,7.35
Chad Valley 132/11kv,52.4739,-1.9529,NGED,31.82
Chaddesden 33 11kv S Stn,52.925,-1.4409,NGED,6.92
Chapel Brampton 33 11kv S Stn,52.2902,-0.9273,NGED,7.39
Chapel St Leonards 33 11kv S Stn,53.2251,0.3159,NGED,2.11
Chard,50.8727,-2.9581,NGED,8.81
Chatterley Whitfield Stor 33kv,53.0772,-2.1776,NGED,
Cheadle 33/11kv,52.9813,-2.0047,NGED,12.09
Checkerhouse 11kv S Stn,53.307,-0.9961,NGED,5.76
Cheddar,51.275,-2.7823,NGED,1.72
Cheddleton 33/11kv,53.0713,-2.036,NGED,2.71
Chelmsley Wood 132/11kv,52.4796,-1.7366,NGED,15.7
Cheltenham 132/66/11kv Reporting,51.9096,-2.1205,NGED,27.15
Chepstow,51.6419,-2.6727,NGED,6.87
Cherington 33/11kv,51.675,-2.1465,NGED,0.55
Chew Stoke,51.3725,-2.6377,NGED,2.94
Chewton Mendip,51.2722,-2.565,NGED,1.81
Childs Way 33 11kv S Stn,52.0336,-0.7647,NGED,1.35
Chilwell 33 11kv S Stn,52.9158,-1.2292,NGED,3.89
Chipping Sodbury 132/33/11kv Reporting,51.5531,-2.4123,NGED,25.32
Chudleigh Knighton,50.5881,-3.6256,NGED,3.24
Church St 33 11kv S Stn,52.8996,-1.8608,NGED,7.7
Churchill Gate 33/11,51.3383,-2.7936,NGED,1.48
Churchover 33/11kv,52.4154,-1.2729,NGED,
Churston,50.4026,-3.5658,NGED,8
Cinderhill 33 11kv S Stn,52.9882,-1.2018,NGED,2.26
Clase,51.6663,-3.9449,NGED,4.22
Claverdon 33 11kv S Stn,52.277,-1.6953,NGED,1.53
Cleobury Mortimer 33/11kv,52.3763,-2.4856,NGED,2.12
Clevedon,51.428,-2.847,NGED,3.93
Clifton,51.4555,-2.6123,NGED,18.62
Clifton 33 11kv S Stn,52.9039,-1.1785,NGED,18.4
Clipstone 11kv S Stn,53.1655,-1.1036,NGED,18.27
Clovelly,50.9841,-4.4041,NGED,2.98
Clowne 33 11kv S Stn,53.2791,-1.2405,NGED,0.72
Clyst Honiton,50.729,-3.4335,NGED,17.72
Coalville 11kv S Stn,52.6882,-1.3276,NGED,6.16
Coker,50.914,-2.665,NGED,1.73
Colley End,50.4386,-3.5712,NGED,5
Colley Lane,51.1195,-2.9885,NGED,18.77
Colwick 33 11kv S Stn,52.9604,-1.0802,NGED,10.73
Colyford,50.729,-3.0565,NGED,12.64
Combe Park,51.3933,-2.3885,NGED,17.36
Commercial Road 132/33/11kv,51.8645,-2.2501,NGED,10.19
Commercial St Neath,51.6625,-3.808,NGED,9.13
Compton Martin 33/11kv S/S,51.3247,-2.6559,NGED,1.02
Congleton 33/11kv,53.1634,-2.2039,NGED,17.66
Congresbury,51.376,-2.8024,NGED,9.73
Constantine 33kv,50.124,-5.1851,NGED,1.35
Copsewood 33 11kv S Stn,52.403,-1.4642,NGED,6.34
Corby Central 33/11kv,52.498,-0.6724,NGED,6.89
Corby No2 11kv S Stn,52.4918,-0.6686,NGED,19.04
Core Hill,50.7025,-3.2464,NGED,1.62
Coseley 132/11kv,52.552,-2.0916,NGED,25.05
Cotes Heath 33/11kv,52.9117,-2.248,NGED,10.5
Cotgrave 33 11kv S Stn,52.9236,-1.0308,NGED,7.3
Cotham Primary,51.4603,-2.6004,NGED,10.86
Coton Road 33/6.6kv,52.5213,-1.4668,NGED,6.09
Countess Wear,50.7014,-3.4934,NGED,4.14
Court Road Barry,51.4105,-3.2618,NGED,9.19
Courtaulds 33/6.6kv,52.4249,-1.5052,NGED,0.39
Courthouse Green 33/11kv S Stn,52.4305,-1.4842,NGED,10.24
Courthouse Green 33/6 6kv S Stn,52.4302,-1.4843,NGED,4.34
Courthouse Green 33/6.6kv,52.4302,-1.4843,NGED,
Coventry Arena 33/11kv,52.4499,-1.4937,NGED,11.7
Coventry North 11kv S Stn,52.4538,-1.4675,NGED,2.33
Coventry South 11kv S Stn,52.406,-1.5387,NGED,
Coventry West 6 6kv S Stn,52.4016,-1.6054,NGED,10.45
Cowbridge,51.4626,-3.4468,NGED,2.17
Cowhorn 33/11kv,51.4461,-2.4773,NGED,6.34
Cowley Road,50.7358,-3.5409,NGED,3.34
Cox Street 33 6 6kv S Stn,52.4099,-1.502,NGED,9.05
Craggs Lane 33 11kv S Stn,53.2741,-1.1997,NGED,15.42
Cranwell 33 11kv S Stn,53.0368,-0.4983,NGED,0.4
Craven Arms 33/11kv,52.4411,-2.8315,NGED,4.19
Crediton,50.7911,-3.6686,NGED,14.37
Creech St Michael,51.0157,-3.0254,NGED,15.6
Creigiau,51.5256,-3.3198,NGED,7.45
Crewkerne,50.8818,-2.7851,NGED,8.63
Cribbs Causeway,51.529,-2.5949,NGED,11.52
Crick 33 11kv S Stn,52.3521,-1.1647,NGED,20.81
Crickhowell,51.8666,-3.129,NGED,4.83
Cromford 33 11kv S Stn,53.1022,-1.565,NGED,8.83
Cross Hands,51.7857,-4.0751,NGED,8.05
Crowland 33 11kv S Stn,52.6836,-0.164,NGED,0.49
Crown Farm 33 11kv S Stn,53.1475,-1.1571,NGED,10.27
Crumlin Primary,51.6743,-3.1582,NGED,15.53
Crwys Road,51.4964,-3.1814,NGED,6.72
Cullompton,50.8589,-3.4034,NGED,15.2
Culmhead,50.9391,-3.1107,NGED,1.66
Curry Mallet,50.9868,-2.9448,NGED,2.89
Cwmbran Primary,51.6531,-3.0254,NGED,17.55
Cwmfelinfach,51.6179,-3.1812,NGED,7.16
Cwmffrwd,51.8344,-4.2988,NGED,7.61
Cyncoed,51.5183,-3.1614,NGED,20.65
Dairy Crest Davidstow,50.6501,-4.6353,NGED,9.34
Daneshill 33kv,53.3742,-0.9857,NGED,
Danesmoor 33 11kv S Stn,53.1635,-1.3944,NGED,6
Darley Abbey 33 11kv S Stn,52.9441,-1.4857,NGED,6.59
Dartmouth,50.3478,-3.6022,NGED,15.4
Daventry 11kv S Stn,52.2596,-1.1549,NGED,15.39
Davidstow,50.6551,-4.6181,NGED,0.69
Dawlish,50.5791,-3.4802,NGED,11.12
Delabole,50.6269,-4.7131,NGED,6.57
Denby 33 11kv S Stn,53.0157,-1.4299,NGED,13.43
Denton 33 11kv S Stn,52.2176,-0.7764,NGED,2.13
Derby 11kv S Stn,52.9258,-1.4762,NGED,
Desborough 33 11kv S Stn,52.4454,-0.815,NGED,10.15
Desford 33 11kv S Stn,52.6395,-1.2715,NGED,9.69
Devoran,50.2183,-5.1005,NGED,3.76
Dillotford Ave 33 11kv S Stn,52.3885,-1.5066,NGED,6.52
Dinder,51.2079,-2.5858,NGED,3.42
Doddington Park 33 11kv S Stn,53.2061,-0.6155,NGED,7.27
Donington 33 11kv S Stn,52.9155,-0.189,NGED,3.91
Donnington 33/11kv,52.7266,-2.4337,NGED,4.42
Dorchester St - New,51.3783,-2.358,NGED,-2.63
Dothill 33/11kv,52.7167,-2.5343,NGED,7.74
Dowlish Ford,50.9151,-2.9147,NGED,14.17
Dowsby Fen 33 11kv S Stn,52.8488,-0.2762,NGED,1.71
Drinnick.,50.3623,-4.8743,NGED,-8.04
Droitwich 66/11kv,52.274,-2.1706,NGED,17.92
Dudbridge 33/11kv,51.7403,-2.2382,NGED,10.52
Dunkeswell 33/11kv,50.8564,-3.2163,NGED,4.26
Dunlop 33/6.6kv,52.4375,-1.5122,NGED,11.37
Dursley 33/11kv,51.6907,-2.3478,NGED,9.24
Dymock 66/11kv,51.9703,-2.4494,NGED,1.16
Eagle Centre 33/11kv,52.9198,-1.4715,NGED,8.13
Earls Barton 33 11kv S Stn,52.2627,-0.7605,NGED,3.9
Earlstrees 33 11kv S Stn,52.5109,-0.6969,NGED,4.56
East Aberthaw Primary,51.397,-3.3883,NGED,5.15
East Brent,51.2774,-2.9294,NGED,2.48
East Budleigh,50.6566,-3.328,NGED,4.96
East Chinnock Primary,50.9155,-2.7258,NGED,4.01
East Curry,50.7124,-4.4216,NGED,3.16
East Leake 33 11kv S Stn,52.8435,-1.1815,NGED,10.9
East Midlands Gateway Primary Substation 33/11kv,52.8387,-1.3057,NGED,
Easthope 33/11kv,52.5522,-2.6367,NGED,2.85
Easton 33/11kv,52.828,-0.6075,NGED,4.32
Easton-In-Gordano,51.4713,-2.6921,NGED,3.97
Eastville,51.4685,-2.5506,NGED,9.84
Ebbw Vale Primary,51.7658,-3.1967,NGED,22.07
Eccleshall 33/11kv,52.8527,-2.2551,NGED,0.91
Eckington 33 11kv S Stn,53.3032,-1.3663,NGED,4.22
Edgarley,51.1395,-2.6873,NGED,3.02
Eggbuckland,50.4004,-4.1129,NGED,12.76
Eldergate 33 11kv S Stn,52.041,-0.7715,NGED,11.71
Elim Terrace,50.3875,-4.1359,NGED,4.89
Ellesmere Avenue 33 11kv S Stn,52.2418,-0.9315,NGED,6.34
Elton 33/11kv,51.8211,-2.4428,NGED,5.35
Ely,51.4836,-3.2235,NGED,16.72
Emersons Green,51.4981,-2.4732,NGED,19.44
Empingham 33/11kv,52.6623,-0.5957,NGED,11.73
Endon 33/11kv,53.0704,-2.1041,NGED,14.66
Energlyn 33kv,51.5916,-3.2208,NGED,
Energlyn Primary,51.5921,-3.2397,NGED,15.41
Entry Hill,51.3611,-2.3642,NGED,14.84
Epwell 66/11kv,52.0701,-1.4747,NGED,1.45
Erdington 11kv,52.5131,-1.8275,NGED,10.52
Erin Road 33 11kv S Stn,53.2573,-1.3334,NGED,
Ernesettle B & S,50.4233,-4.188,NGED,0.15
Evercreech,51.1472,-2.51,NGED,6.96
Evesham 66/11kv,52.1102,-1.9329,NGED,7.35
Exebridge,51.0145,-3.5289,NGED,9.97
Exeter Science Park,50.7352,-3.4607,NGED,9.81
Exminster,50.6763,-3.4937,NGED,3.03
Exmouth Works,50.6233,-3.4062,NGED,4.46
Exton 33/11kv,52.686,-0.6525,NGED,3.24
Eyam 33 11kv S Stn,53.2802,-1.6731,NGED,3.57
Fairwater,51.4936,-3.2427,NGED,2.13
Falmouth Bickland Hl,50.1575,-5.1009,NGED,6.02
Falmouth Docks,50.151,-5.0567,NGED,6.98
Farndon Road 33 11kv S Stn,52.471,-0.9335,NGED,11.37
Farnsfield 33 11kv S Stn,53.1047,-1.0233,NGED,19.8
Feckenham 66/11kv,52.2531,-1.9717,NGED,10.4
Feeder Rd 11kv,51.4501,-2.5671,NGED,20.75
Feeder Road B,51.45,-2.5672,NGED,10.78
Fen Farm 33 11kv S Stn,52.0345,-0.6772,NGED,14.65
Fernwood 33 11kv S Stn,53.0423,-0.7772,NGED,18.3
Field Street 33 11kv S Stn,52.4029,-0.7286,NGED,
Filton Dc,51.5099,-2.5724,NGED,-13.72
Fishguard,51.9781,-4.9711,NGED,8.04
Fiskerton 33 11kv S Stn,53.2382,-0.4154,NGED,11.68
Folly Bridge,50.7765,-3.6793,NGED,1.67
Four Ashes 33/11kv,52.6764,-2.1169,NGED,11.73
Fowey,50.3409,-4.6485,NGED,3.18
Fox Milne 33 11kv S Stn,52.048,-0.7068,NGED,6.23
Foxhills,51.2894,-2.4478,NGED,7.29
Fraddon,50.3749,-4.9365,NGED,15.05
Fremington,51.0672,-4.1453,NGED,2.93
Froghall 33/11kv,53.0224,-1.9636,NGED,2.83
Garngoch,51.6626,-4.0186,NGED,6.26
Gas Lane,51.4849,-2.766,NGED,7.18
Gas Yard,51.6038,-3.3391,NGED,16.5
Gaydon 33 11kv S Stn,52.2017,-1.4852,NGED,9.22
Gedling 33 11kv S Stn,52.985,-1.0908,NGED,13.14
Geevor,50.1489,-5.673,NGED,8.92
Georgeham,51.1513,-4.1772,NGED,0.8
Gethin Street Swansea,51.6177,-3.9495,NGED,12.79
Gipsy Lane 33 11kv S Stn,52.5013,-1.4434,NGED,11.07
Glasbury,52.035,-3.1986,NGED,7.44
Gnosall 33/11kv,52.7822,-2.2576,NGED,0.94
Goitside 6 6kv S Stn,53.2334,-1.4448,NGED,9.61
Golden Hill Primary,51.684,-4.908,NGED,12.11
Goldenhill Bank 33/11kv,53.0829,-2.2267,NGED,0.25
Grangetown Grid Primary,51.4634,-3.1938,NGED,17.98
Grantham North 11kv S Stn,52.9375,-0.6471,NGED,
Grantham South 11kv S Stn,52.9043,-0.6378,NGED,
Grassmoor 33 11kv S Stn,53.1998,-1.3839,NGED,2.31
Great Alne 66/11kv,52.2342,-1.8112,NGED,1.66
Great Hale 33 11kv S Stn,52.9686,-0.2947,NGED,2.56
Great Torrington,50.9569,-4.1325,NGED,7.54
Gresley 11kv S Stn,52.7583,-1.5895,NGED,27.07
Groby Road 33 11kv S Stn,52.6508,-1.1729,NGED,4.1
Gulson Road 33 6 6kv S Stn,52.4077,-1.491,NGED,14.28
Gunnislake,50.5195,-4.2257,NGED,1.2
Gwaun Cae Gurwen,51.7892,-3.868,NGED,3.59
Halesfield 33/11kv,52.641,-2.433,NGED,25.55
Halesowen 132/11kv,52.4538,-2.0461,NGED,35.86
Halfway 33 11kv S Stn,53.3283,-1.3421,NGED,6.27
Hall Green 132/11kv,52.4408,-1.8424,NGED,39.01
Hallcroft Rd 33 11kv S Stn,53.3353,-0.9561,NGED,2.79
Hamilton 33 11kv S Stn,52.6589,-1.0785,NGED,7.73
Hammerley Down 33/11kv,51.6257,-2.4201,NGED,9.32
Hanslope Park 33 11kv S Stn,52.1067,-0.8058,NGED,-0.04
Harbury 11kv S Stn,52.2271,-1.4307,NGED,15.07
Harlescott 33/11kv,52.7388,-2.7285,NGED,5.52
Harrold 33 11kv S Stn,52.2063,-0.6048,NGED,6.35
Hatherleigh,50.8177,-4.0755,NGED,2.79
Hatton 33 11kv S Stn,52.8639,-1.6816,NGED,12.35
Hatton Gas Compressor 132kv,53.2699,-0.2351,NGED,
Haven Road,50.717,-3.5308,NGED,16.39
Haverfordwest Power Stn,51.8029,-4.9628,NGED,5.24
Hawkesmill Lane 33/6.6kv,52.4428,-1.5605,NGED,12.82
Hawton 11kv S Stn,53.0499,-0.8053,NGED,4.14
Hayle,50.1928,-5.4283,NGED,9.56
Hazelwood 33/11kv,52.4854,-0.7131,NGED,11.12
Heanor 11kv S Stn,53.0211,-1.3624,NGED,4.69
Heath,51.5069,-3.1986,NGED,7.25
Heath Hospital Primary,51.5068,-3.1942,NGED,7.51
Heavitree,50.7207,-3.4904,NGED,7.53
Heddon Cross,51.0369,-3.9289,NGED,1.67
Helston,50.1105,-5.2687,NGED,8.75
Hemyock,50.9187,-3.2516,NGED,2.05
Hendy,51.7125,-4.0548,NGED,8.18
Hereford Central 66/11kv,52.0596,-2.7161,NGED,17.67
Hereford North 66/11kv,52.0744,-2.7146,NGED,21.33
Hereford South 66/11kv,52.0293,-2.7064,NGED,12.92
Hewlett Packard,51.5014,-2.5562,NGED,33.72
High Littleton,51.3307,-2.4999,NGED,9.33
High Offley 33/11kv,52.832,-2.3205,NGED,2.64
Higher Woodway,50.5614,-3.4962,NGED,16.47
Highfields 33 11kv S Stn,52.6293,-1.1214,NGED,7.02
Highmead,51.4765,-3.2452,NGED,8.29
Highters Heath 132/11kv,52.4043,-1.8697,NGED,45.31
Hill Barton Primary,50.7124,-3.4112,NGED,-0.29
Hill Chorlton 33/11kv,52.9521,-2.2974,NGED,0.03
Hillmorton 33 11kv S Stn,52.3669,-1.2204,NGED,5.4
Hinckley 11kv S Stn,52.529,-1.3951,NGED,
Hinksford 132/33kv 132/11kv & 33/11kv,52.5061,-2.1938,NGED,-20.3
Hinstock 33/11kv,52.8369,-2.4508,NGED,3.03
Hirwaun Primary,51.7415,-3.5364,NGED,7.71
Hockley 132/11kv,52.489,-1.901,NGED,30.72
Hockley Farm Road 33/11kv,52.6304,-1.1877,NGED,2.32
Holbeach 33 11kv S Stn,52.8169,0.0295,NGED,7.11
Holbrook Lane 33/6.6kv,52.4356,-1.5071,NGED,3.49
Holford,51.1688,-3.1967,NGED,1.54
Hollicombe,50.4539,-3.5577,NGED,5.3
Holme Carr 33 11kv S Stn,53.3133,-1.165,NGED,7.2
Holsworthy,50.8052,-4.357,NGED,3.97
Holwell 33 11kv S Stn,52.7753,-0.9198,NGED,8.02
Holyhead Road 33 11kv S Stn,52.4171,-1.5434,NGED,11.73
Honiton Heathfield,50.7912,-3.2059,NGED,4.26
Hookgate 33/11kv,52.9129,-2.3799,NGED,3.99
Hopton 33 11kv S Stn,53.0888,-1.6098,NGED,7.07
Horncastle 33 11kv S Stn,53.2181,-0.1122,NGED,7.89
Hortonwood 132/11kv,52.7192,-2.4889,NGED,28.65
Hucknall 33 11kv S Stn,53.0415,-1.1986,NGED,2.69
Huthwaite 33 11kv S Stn,53.1272,-1.2911,NGED,9.19
I54 Business Park 33/11kv,52.6301,-2.1418,NGED,68.93
Ilfracombe,51.2007,-4.1097,NGED,12.65
Ilkeston 33 11kv S Stn,52.9758,-1.3249,NGED,3.73
Infinity Park 33 11 Kv S Stn,52.8791,-1.4635,NGED,
Ingoldmells 33 11kv S Stn,53.1802,0.3314,NGED,10.6
Interlink Park 33/11 Kv,52.699,-1.3464,NGED,14.56
Ipsley 66/11kv,52.2962,-1.9144,NGED,42.28
Ironbridge,51.5259,-3.2503,NGED,7.32
Irthlingborough 11kv S Stn,52.3197,-0.6141,NGED,10.5
Isles Of Scilly,49.9144,-6.3128,NGED,2.31
Ivybridge,50.3867,-3.9254,NGED,9.25
Jaguar Browns Lane 33/11kv,52.4381,-1.5557,NGED,12.84
Jaguar Land Rover,52.1936,-1.478,NGED,
Javelin Park Efw,51.7926,-2.2916,NGED,
Jersey Marine,51.6239,-3.8725,NGED,9.98
Jlr Whitley,52.382,-1.4851,NGED,
Jupiter 33 11kv S Stn,52.6265,-1.1645,NGED,9.48
Kenilworth 33/11kv,52.3371,-1.5846,NGED,7.19
Kenswick 66/11kv,52.228,-2.3109,NGED,-1.27
Ketley 33/11kv (Reporting),52.6945,-2.4835,NGED,18.63
Kettering North 33 11kv S Stn,52.425,-0.7351,NGED,18.69
Ketton Cement 33/11kv,52.6423,-0.5447,NGED,
Keynsham East,51.4121,-2.492,NGED,4.7
Keynsham West,51.4141,-2.5063,NGED,16.5
Keyworth 33 11kv S Stn,52.869,-1.0799,NGED,3.76
Kibworth 11kv S Stn,52.5372,-1.0234,NGED,11.81
Kidderminster 132/33/11kv Reporting,52.3828,-2.2508,NGED,35.22
Kidwelly,51.7438,-4.2891,NGED,4.12
Kiln Farm 33 11kv S Stn,52.0494,-0.8255,NGED,8.3
Kilton Rd 33 11kv S Stn,53.3085,-1.1111,NGED,5.95
Kingsbridge,50.2843,-3.781,NGED,11
Kingsley Holt 33/11kv,53.0091,-1.9694,NGED,4.11
Kingstanding 132/11kv,52.5557,-1.8798,NGED,3.73
Kingsthorpe 33 11kv S Stn,52.2645,-0.9006,NGED,8.27
Kingston 33/11kv,52.0413,-0.6874,NGED,6.63
Kingsweston,51.5113,-2.6838,NGED,6.72
Kington 66/11kv,52.2121,-3.0075,NGED,2.75
Kinver 33/11kv,52.4408,-2.2145,NGED,3.08
Kirton 33 11kv S Stn,52.9217,-0.0575,NGED,1.44
Knighton 66/11kv,52.3367,-3.042,NGED,1.4
Knypersley 33/11kv,53.0987,-2.1785,NGED,12.22
Lady Windsor,51.6367,-3.3565,NGED,6.86
Lampeter Primary,52.0963,-4.0898,NGED,8.12
Laneast,50.6178,-4.4828,NGED,3.2
Langage,50.3849,-4.0171,NGED,15.21
Langage Energy Centre,50.3883,-4.0111,NGED,-1.77
Langdale Drive 33 11kv S Stn,52.53,-1.4364,NGED,9.48
Langrick 33 11kv S Stn,53.0121,-0.1246,NGED,3.03
Lanner,50.2183,-5.1003,NGED,5.84
Lanreath,50.3785,-4.585,NGED,4.39
Lapford,50.8524,-3.8095,NGED,3.48
Larport Farm Bess,52.0609,-2.631,NGED,
Launceston,50.6293,-4.3562,NGED,12.38
Lawes Bridge,50.4845,-3.5518,NGED,8.46
Lawford 33 11kv S Stn,52.3754,-1.2881,NGED,6.7
Laywell Brixham,50.3835,-3.5243,NGED,4.3
Leadenham 33/11kv,53.0461,-0.577,NGED,1.83
Leaton 33/11kv,52.7027,-2.575,NGED,5.33
Ledbury 66/11kv,52.0463,-2.427,NGED,0.92
Leebotwood 33/11kv,52.5785,-2.7663,NGED,3.2
Leek 33/11kv,53.1021,-2.0326,NGED,0.66
Leicester 11kv S Stn,52.6235,-1.1424,NGED,
Leicester East 6 6kv S Stn,52.6295,-1.1016,NGED,6.8
Leicester North 11kv S Stn,52.6468,-1.1435,NGED,-19.59
Lenton 33/11kv,52.944,-1.1888,NGED,9.21
Leominster 66/11kv,52.2288,-2.761,NGED,26.02
Lero 33 6 6kv S Stn,52.6445,-1.1276,NGED,13.15
Lichfield 132/11kv,52.6983,-1.8173,NGED,22.6
Lifton,50.643,-4.2706,NGED,8.35
Lime Street Gorseinon,51.6686,-4.0378,NGED,14.06
Lime Tree Place 33 11kv S Stn,53.1415,-1.1911,NGED,17.03
Lincoln No 2 11kv S Stn,53.2283,-0.5216,NGED,
Linketty Lane,50.3889,-4.0648,NGED,11.57
Liskeard,50.4486,-4.4519,NGED,9.98
Litchard,51.5238,-3.5737,NGED,7.51
Little Hallam 33 11kv S Stn,52.9598,-1.309,NGED,6.61
Little Irchester 33 11kv S Stn,52.2875,-0.6796,NGED,7.91
Llanarth Primary,52.1885,-4.3211,NGED,9.04
Llandarcy,51.6497,-3.8512,NGED,12.74
Llandeilo,51.8974,-3.9881,NGED,3.07
Llandough,51.4461,-3.2001,NGED,3.88
Llandovery,51.9882,-3.8057,NGED,5.05
Llandrindod Wells,52.2424,-3.3881,NGED,5.95
Llanelli Primary,51.6772,-4.1721,NGED,
Llanfihangel Ystrad,52.1767,-4.1587,NGED,7.04
Llanfyrnach,51.9488,-4.5879,NGED,2.33
Llangadog,51.9425,-3.9016,NGED,4.87
Llangewydd,51.5129,-3.5992,NGED,6.19
Llanishen,51.5316,-3.2052,NGED,7.53
Llanllwni,52.0473,-4.2351,NGED,2.08
Llanrhidian,51.607,-4.1762,NGED,-2.94
Llantarnam Primary,51.6296,-3.0167,NGED,7.89
Llynfi,51.5715,-3.6117,NGED,9.89
Lockheed 33 11kv S Stn,52.2721,-1.5403,NGED,11.87
Lockleaze,51.4847,-2.5692,NGED,9.3
London Road 33 6 6kv S Stn,52.4033,-1.5015,NGED,6.5
Long Eaton 33 11kv S Stn,52.8983,-1.2748,NGED,13.89
Long Marston 66/11kv,52.1025,-1.7822,NGED,0.61
Long Sutton 33 11kv S Stn,52.7785,0.1136,NGED,7.9
Longbridge,50.3928,-4.0842,NGED,13.16
Longbridge 132/11kv,52.3967,-1.974,NGED,32.3
Longcliffe 33 11kv S Stn,53.0948,-1.6592,NGED,14.63
Longton 33/11kv (Reporting),52.9746,-2.1333,NGED,36.42
Looe,50.3466,-4.4823,NGED,5.36
Lostwithiel,50.412,-4.6595,NGED,15.86
Loughborough 11kv S Stn,52.7863,-1.2096,NGED,
Lower Chadnor 66/11kv,52.1693,-2.8424,NGED,1.15
Lower Strensham Pv,52.0657,-2.1423,NGED,
Luckwell Bridge,51.1374,-3.5634,NGED,0.15
Ludlow 132/66/33/11kv Reporting,52.3668,-2.688,NGED,9.31
Lutterworth 33 11kv S Stn,52.4555,-1.2166,NGED,11.6
Lydeard St Lawrence Primary,51.0799,-3.2386,NGED,4.34
Lynton,51.2216,-3.8482,NGED,4.7
Lypstone Farm,51.3516,-2.9162,NGED,6.89
Mackworth 33 11kv S Stn,52.9211,-1.5199,NGED,3.32
Madeley 33/11kv,52.651,-2.4532,NGED,4.41
Madley 66/11kv,52.0363,-2.8486,NGED,4.09
Maerdy,50.9536,-4.4254,NGED,5.44
Maesarddafen,51.6779,-4.1267,NGED,3.72
Magna Park 33 11kv S Stn,52.4492,-1.2506,NGED,16.35
Magor Primary,51.5801,-2.8448,NGED,16.78
Malehurst 33/11kv,52.6504,-2.9103,NGED,8.05
Mangotsfield,51.4862,-2.4942,NGED,11.32
Mansfield 11kv S Stn,53.156,-1.1993,NGED,10.82
Mansfield St 33 11kv S Stn,52.6388,-1.1334,NGED,-17.2
Mantle Lane 33 11kv S Stn,52.7267,-1.3751,NGED,8.23
Manton 33 11kv S Stn,53.2946,-1.0958,NGED,9.84
Mapperley 33/11kv,52.9703,-1.1309,NGED,17.06
Marazion,50.1371,-5.465,NGED,7.77
Marchington 33 11kv S Stn,52.8789,-1.8028,NGED,5.56
Market Deeping 33 11kv S Stn,52.6783,-0.3012,NGED,10.64
Market Drayton 33/11kv,52.9019,-2.4818,NGED,13.9
Market Harborough 33 11kv S Stn,52.4794,-0.9025,NGED,3.1
Market Overton 33 11kv S Stn,52.7588,-0.6666,NGED,4.22
Marlborough Road 33/11kv,52.9903,-1.134,NGED,4.25
Marlborough Street 33/11kv,52.0622,-0.7589,NGED,2.91
Marldon,50.4527,-3.5955,NGED,5.15
Marle Hill 132/66/11kv Reporting,51.9105,-2.0825,NGED,17.02
Marsh Barton,50.7062,-3.5305,NGED,12.13
Marsh Green,50.7388,-3.3518,NGED,3.47
Marsh Lane 33 11kv S Stn,52.9617,-0.0136,NGED,5.15
Martock,50.9681,-2.7732,NGED,3.53
Matlock 33 11kv S Stn,53.1388,-1.5509,NGED,11.8
Maxwell House Data Centre 33/11kv,52.0024,-0.7374,NGED,
Mead Lane 33/11kv,51.7143,-2.5377,NGED,17.68
Meadow Lane 33 11kv S Stn,53.1021,-1.3758,NGED,3.59
Meaford C 33/11kv Reporting,52.9316,-2.1673,NGED,23.15
Meinciau,51.7694,-4.243,NGED,0.86
Melbourne 33/11kv,52.8092,-1.4337,NGED,-1.78
Melton Mowbray 11kv S Stn,52.7644,-0.8697,NGED,8.06
Merlins Bridge,51.792,-4.9769,NGED,6.41
Merrivale,50.4136,-4.1556,NGED,6.91
Merthyr East Primary,51.7572,-3.3607,NGED,13.18
Metheringham 33 11kv S Stn,53.1352,-0.4092,NGED,1.04
Mevagissey,50.2855,-4.7995,NGED,7.81
Middle Barlington,50.9293,-4.0567,NGED,2.05
Middle Fan,51.6681,-3.4562,NGED,4.3
Middlefield 33/11kv,52.5561,-1.3744,NGED,6.84
Midsomer Norton,51.2909,-2.4841,NGED,9.74
Milford Haven,51.7143,-5.0408,NGED,
Mill St Tonyrefail,51.5821,-3.4302,NGED,15.43
Millclose 33 11kv S Stn,53.1576,-1.6161,NGED,4.29
Millfield,51.1123,-2.7297,NGED,5.59
Misson 33 11kv S Stn,53.4481,-0.9691,NGED,5.65
Misterton 33 11kv S Stn,53.4343,-0.8439,NGED,4.94
Mitcheldean 33/11kv,51.8582,-2.4988,NGED,9.33
Modbury,50.3483,-3.8943,NGED,2.73
Moira 33 11kv S Stn,52.7409,-1.5531,NGED,1.89
Monmouth,51.8056,-2.7296,NGED,9.9
Montacute,50.9547,-2.6972,NGED,8.01
Moorgreen 33 11kv S Stn,53.0231,-1.2954,NGED,8.2
Moreton 66/11kv,51.9945,-1.7017,NGED,1.52
Morlanga,51.4838,-3.3084,NGED,4.95
Morley 33/11kv,52.9685,-1.4137,NGED,5.38
Morriston Primary,51.6669,-3.9137,NGED,2.27
Mortonhampstead,50.6577,-3.7658,NGED,-0.43
Morwenstow,50.9031,-4.5038,NGED,2.44
Mount Bridge Boston 33 11kv S Stn,52.9693,-0.0146,NGED,9.04
Mountain Ash,51.6777,-3.3761,NGED,11.61
Mountsorrel 33 11kv S Stn,52.7236,-1.1325,NGED,8.92
Mousehole,50.0838,-5.5487,NGED,1.76
Mullion,50.0218,-5.2089,NGED,3.46
Nailsea,51.427,-2.7549,NGED,5.72
Nailstone 33 11kv S Stn,52.6763,-1.3617,NGED,5.67
Naishcombe Hill 33/11kv,51.4632,-2.4273,NGED,-0.37
Nantgaredig,51.8649,-4.191,NGED,1.81
Nantgarw Primary,51.5628,-3.2696,NGED,15.73
Nantwen,51.7002,-3.3128,NGED,1.04
Nelson,51.6459,-3.2944,NGED,2.41
Nether Stowey,51.1482,-3.1255,NGED,9.1
Netherhills 33/11kv,51.7621,-2.3406,NGED,8.31
Nevern,52.016,-4.7915,NGED,5.81
New Beacon Road Grantham 33 11kv S Stn,52.9133,-0.6291,NGED,2.87
New Lodge,51.6878,-4.2284,NGED,9.43
Newark Junction 33 11kv S Stn,53.0784,-0.7986,NGED,12.72
Newbury,51.2492,-2.4321,NGED,1.66
Newcastle 132/11kv,53.029,-2.2423,NGED,61.9
Newcastle 33/11kv,53.0301,-2.2422,NGED,
Newcastle Emlyn South,52.0362,-4.4713,NGED,5.43
Newdigate 33/11kv,52.486,-1.4991,NGED,15.06
Newent 66/11kv,51.9289,-2.3802,NGED,9.24
Newhouse Primary S/S,51.6213,-2.6687,NGED,4.53
Newlyn,50.1102,-5.5621,NGED,1.17
Newport 33/11kv,52.765,-2.3947,NGED,9.04
Newport East Primary,51.5862,-2.9852,NGED,-8.71
Newport Pagnell 33/11kv,52.076,-0.7259,NGED,6.99
Newport South Primary,51.5667,-2.9682,NGED,13.04
Newport Street,50.3681,-4.1643,NGED,10.42
Newport West Primary,51.5669,-3.0054,NGED,-31.83
Newquay Trencreek Ln,50.4129,-5.0569,NGED,1.73
Newquay Trevemper,50.3975,-5.0704,NGED,9.03
Newton Abbot Main,50.5333,-3.5995,NGED,8.27
Newton Ferrers,50.3268,-4.0272,NGED,5.46
Newton Poppleford,50.7013,-3.2909,NGED,4.75
Newton Road 33 11kv S Stn,51.9906,-0.753,NGED,13.55
Newton St Cyres,50.7754,-3.569,NGED,4.91
Neyland,51.7176,-4.9643,NGED,4.05
Normanton 33 11kv S Stn,52.8992,-1.4924,NGED,14.64
North Greetwell 132kv Switching Station,53.2544,-0.4902,NGED,
North Hykeham 33 11kv S Stn,53.1926,-0.5996,NGED,6.76
North Intake,50.3863,-4.1828,NGED,22.29
North Street Langport,51.0397,-2.8284,NGED,7.84
North Tawton,50.7964,-3.9133,NGED,9.37
North Wheatley 33/11kv,53.3719,-0.8825,NGED,3.54
North Wilford 33 11kv S Stn,52.9348,-1.1639,NGED,7.8
Northam,51.0438,-4.2095,NGED,2.05
Northampton 11kv S Stn,52.2314,-0.8846,NGED,
Northampton East 11kv S Stn,52.243,-0.8372,NGED,10.53
Northampton West 11kv S Stn,52.2457,-0.9135,NGED,-13.26
Northcote St.,51.4902,-3.1712,NGED,8.66
Nottage,51.4912,-3.7024,NGED,12.23
Nottingham North 11kv S Stn,52.9784,-1.1734,NGED,
Nuneaton 11kv S Stn,52.512,-1.4882,NGED,8.53
Oakham 11kv S Stn,52.6682,-0.7096,NGED,5.77
Oakley 33/11kv,52.4639,-0.7307,NGED,14.7
Ocker Hill B 132/33kv & 132/11kv,52.5413,-2.0371,NGED,28.38
Offwell,50.795,-3.1533,NGED,1.8
Ogmore Vale,51.608,-3.5441,NGED,9.04
Okehampton,50.7375,-4.0009,NGED,4.28
Old Dalby 33 11kv S Stn,52.7981,-0.9851,NGED,3.96
Old Laira Road,50.3821,-4.1197,NGED,17.25
Oldbury B 33kv,52.4987,-2.0223,NGED,30.11
Oldfield Park,51.3743,-2.3791,NGED,6.12
Ollerton 33 11kv S Stn,53.1949,-1.0232,NGED,11.15
Olney 33 11kv S Stn,52.154,-0.7113,NGED,3.44
Ordsall Road 33/11kv,53.313,-0.9498,NGED,15.31
Osbaston 33 11kv S Stn,52.6291,-1.3777,NGED,4.31
Osmaston Road 33/6.6kv,52.9081,-1.4641,NGED,
Ottery St Mary,50.7461,-3.2866,NGED,8.45
Oundle 33 11kv S Stn,52.4954,-0.4731,NGED,4.6
Oxbridge 33/11kv,51.5319,-2.4592,NGED,2.51
Padstow,50.5134,-4.9532,NGED,-3.42
Paignton 33/11kv S/S,50.4201,-3.5918,NGED,13.75
Panteg Primary,51.6805,-3.0161,NGED,7.47
Pantyffynon,51.7793,-3.9989,NGED,7.42
Par Harbour,50.3435,-4.7102,NGED,13.43
Park Farm 33 11kv S Stn,52.2994,-0.7389,NGED,9.55
Park Lane,51.0239,-4.2068,NGED,3.52
Park Street,51.3903,-2.3677,NGED,4.36
Patchway,51.5219,-2.5616,NGED,9.89
Pattingham 33/11kv,52.59,-2.2589,NGED,0.82
Paulton,51.3108,-2.5095,NGED,4.06
Peasedown,51.3175,-2.4308,NGED,2.87
Penarth,51.4306,-3.1869,NGED,10.27
Penblewin,51.8245,-4.7298,NGED,5.5
Pencoed Primary,51.521,-3.4899,NGED,13.27
Pendine,51.7479,-4.5184,NGED,5.17
Pengam Grid Bsp,51.6695,-3.2183,NGED,6.92
Penn Cross,50.7451,-2.9271,NGED,8.36
Penryn,50.1778,-5.1113,NGED,7.31
Pensilva,50.5075,-4.4122,NGED,2.74
Pentrebach,51.7294,-3.368,NGED,12.44
Penzance Causewayhead,50.1205,-5.5383,NGED,5.44
Penzance Heamoor,50.1317,-5.5542,NGED,14.48
Periton,51.2006,-3.4967,NGED,10.36
Perranporth,50.3217,-5.1554,NGED,5.17
Pershore 66/11kv,52.1346,-2.0978,NGED,-0.14
Peterchurch 66/11kv,52.0422,-2.9543,NGED,4.2
Pineham 33 11kv S Stn,52.2176,-0.9577,NGED,17.19
Pinhoe,50.7386,-3.4789,NGED,7.18
Pinxton 11kv S Stn,53.1055,-1.303,NGED,
Plymstock South,50.3535,-4.1014,NGED,17.74
Polesworth 33 11kv S Stn,52.6165,-1.6131,NGED,1.64
Polzeath,50.5701,-4.867,NGED,5.89
Pont Ar Annell,52.0299,-3.9525,NGED,
Pontardawe,51.7182,-3.854,NGED,3.89
Pontllanffraith,51.6619,-3.1873,NGED,2.55
Pontrilas 66/11kv,51.9424,-2.8729,NGED,9.58
Pontyates,51.7524,-4.2263,NGED,3.23
Pontyclun Primary,51.5291,-3.3991,NGED,
Pontypool North Primary,51.7142,-3.0031,NGED,17.39
Portishead Ashlands,51.4894,-2.7456,NGED,8.07
Portway 33 11kv S Stn,52.0451,-0.7618,NGED,7.26
Presteigne 66/11kv,52.2648,-2.9883,NGED,4.32
Priestweston 33/11kv,52.5762,-3.0467,NGED,2.35
Prince Rock,50.3676,-4.1133,NGED,12.23
Princess Royal 33/11kv,51.7544,-2.5617,NGED,5.45
Princethorpe 33 11kv S Stn,52.3302,-1.4146,NGED,9.94
Priorswood,51.0258,-3.0916,NGED,5.36
Probus 33,50.298,-4.9519,NGED,3.4
Pyle Primary,51.5351,-3.6917,NGED,7.83
Pytchley Road 33 11kv S Stn,52.3747,-0.7207,NGED,12.74
Quatt 33/11kv,52.4809,-2.3729,NGED,3
Queens Park 33 11kv S Stn,53.2334,-1.4312,NGED,17.13
Quorn 33 11kv S Stn,52.7489,-1.1741,NGED,4.16
R.O.F. Power House,51.1722,-2.9594,NGED,-7.31
Raf Cranwell High G Facility,53.0255,-0.4781,NGED,
Rassau West Primary,51.798,-3.2375,NGED,17.82
Ratcliffe On Soar 33/11kv,52.8613,-1.2615,NGED,4.55
Raunds 11kv,52.3451,-0.5483,NGED,4.74
Raunds 33kv,52.3452,-0.5482,NGED,
Ravenhill,51.6458,-3.9723,NGED,9.28
Ravensdale Park 33 11kv S Stn,53.0008,-1.5997,NGED,9.5
Redcross Street 33 11kv S Stn,52.634,-1.1384,NGED,13.26
Redditch North 66/11kv,52.3132,-1.9508,NGED,25.74
Redditch South 66/11kv,52.2884,-1.9476,NGED,10.46
Rednal 132/11kv,52.3971,-1.9815,NGED,17.57
Redruth,50.2468,-5.2308,NGED,8.68
Regent Street 33 11kv S Stn,52.7636,-0.8797,NGED,9.5
Rhayader,52.3018,-3.5024,NGED,2.46
Rhos Primary,52.0062,-4.3618,NGED,8.08
Ringland Newport,51.587,-2.9437,NGED,9.2
Ripley 33 11kv S Stn,53.0575,-1.4065,NGED,3.57
Roade 33 11kv S Stn,52.1522,-0.8911,NGED,6.95
Roadford,50.6876,-4.238,NGED,1.68
Robert Hyde 33/11kv,53.2308,-1.4194,NGED,
Robin Hood 33/11kv,53.2436,-1.5801,NGED,2.79
Rocester 33 11kv S Stn,52.9502,-1.8506,NGED,10.8
Rock Farm Ess,52.3687,-2.6888,NGED,
Rock Park,51.0678,-4.0532,NGED,11.25
Rogerstone Primary,51.5991,-3.0776,NGED,19.06
Rookery Lane 33/11kv,53.2103,-0.5613,NGED,6
Roseland,50.1982,-4.9786,NGED,1.32
Ross 66/11kv,51.9216,-2.5896,NGED,3.12
Rotol 33/11kv,51.8975,-2.1785,NGED,20.31
Roundswell,51.0636,-4.0809,NGED,5.29
Roushill 33/11kv,52.7097,-2.7534,NGED,5.36
Rover Way Primary,51.4729,-3.1389,NGED,19.32
Rowton 33/11kv,52.7013,-2.9411,NGED,1.19
Royal Portbury Dock,51.4911,-2.7229,NGED,11.89
Rufford 33 11kv S Stn,53.1376,-1.1097,NGED,19.07
Rugby 11kv S Stn,52.3879,-1.2614,NGED,
Rugby Gateway,52.4042,-1.2511,NGED,13.94
Rugeley Town 132/11kv,52.7544,-1.9349,NGED,10.85
Rushden 33 11kv S Stn,52.2953,-0.597,NGED,18.43
Ruskington 33 11kv S Stn,53.0446,-0.4003,NGED,12.38
Ruston & Hornsby 33/6.6kv,53.2252,-0.5525,NGED,16.24
Ryeford 132/33/11kv Reporting,51.7391,-2.2725,NGED,25.56
Ryton 33/11kv,52.3676,-1.4483,NGED,13.91
Salcombe 340038,50.2338,-3.7779,NGED,0.33
Saltash Dunheved Rd,50.4082,-4.2176,NGED,15.22
Saltash Whity Cross,50.4222,-4.2614,NGED,5.66
Salutation 33/6.6kv,52.6465,-1.099,NGED,5
Sanatorium,51.4784,-3.2117,NGED,7.48
Sandiacre 33/11kv,52.9227,-1.2965,NGED,10.42
Sandon St.,51.4803,-3.1696,NGED,12.2
Sandy Lane 33 6 6kv S Stn,52.4179,-1.5117,NGED,7.46
Sankey 33/11kv,52.7101,-2.48,NGED,16.9
Sapcote 33 11kv S Stn,52.5364,-1.2547,NGED,8.11
Sawles Road,50.3319,-4.7911,NGED,17.17
Schwyll,51.4812,-3.6021,NGED,1.24
Scot Hay 33/11kv,53.0214,-2.2915,NGED,
Secklow Gate 33 11kv S Stn,52.0414,-0.7463,NGED,4.02
Shapwick,51.1293,-2.8445,NGED,2.35
Sharnbrook 33 11kv S Stn,52.2283,-0.5653,NGED,2.28
Shebbear,50.8713,-4.1986,NGED,0.43
Sheepbridge 11/6 6kv S/Stn,53.2702,-1.4424,NGED,9.74
Sheffield Road 33/11/6.6kv,53.248,-1.4256,NGED,2.62
Shenley Wood 33 11kv S Stn,52.019,-0.7948,NGED,6.82
Shepshed 33 11kv S Stn,52.7697,-1.2851,NGED,6.48
Shepton Mallet,51.1929,-2.5452,NGED,7.83
Sherwood Park 33/11kv,53.0707,-1.2611,NGED,14.56
Shifnal 33/11kv,52.6657,-2.3782,NGED,9.64
Ship Hill Barry,51.3954,-3.2857,NGED,9.2
Shipston 66/11kv,52.0798,-1.6427,NGED,1.34
Shirebrook 33 11kv S Stn,53.1962,-1.2442,NGED,2.39
Shirley 132/11kv,52.395,-1.8062,NGED,15.97
Sibthorpe 33 11kv S Stn,52.9994,-0.8755,NGED,0.96
Sidmouth Town,50.6887,-3.2385,NGED,6.44
Silverstone 33 11kv S Stn,52.0748,-1.0311,NGED,30.92
Simplex 33/11kv,52.9662,-2.0779,NGED,5.17
Sinfin C 132/33kv,52.8857,-1.4637,NGED,
Sinfin Lane 33 11kv S Stn,52.8877,-1.4745,NGED,7.76
Skegby Lane 33 11kv S Stn,53.1378,-1.2176,NGED,2.15
Sketty Park,51.6161,-3.993,NGED,8.31
Skillington 33 11kv S Stn,52.8121,-0.6766,NGED,9.34
Sleaford 11kv S Stn,52.9915,-0.4044,NGED,
Sleaford Road Boston 33 11kv S Stn,52.9778,-0.033,NGED,-4
Snedshill 33/11kv,52.6889,-2.442,NGED,12.7
Sneinton 33/11kv,52.9488,-1.1326,NGED,10.76
Somercotes 33 11kv S Stn,53.0851,-1.3729,NGED,6.95
Somerton,51.0582,-2.7412,NGED,7.36
South Brent,50.4274,-3.8259,NGED,0.09
South Carlton 33 11kv S Stn,53.2728,-0.576,NGED,6.34
South Croxton 33 11kv S Stn,52.6965,-0.9989,NGED,3.44
South Molton,51.0266,-3.8278,NGED,8.59
Southam 33 11kv S Stn,52.2732,-1.3905,NGED,5.18
Southway,50.4334,-4.1202,NGED,-5.37
Southwell 33 11kv S Stn,53.0774,-0.9412,NGED,5.52
Sowton,50.7267,-3.4648,NGED,10.09
Sowton B,50.7264,-3.465,NGED,18.44
Spalding Clay Lake 11kv S Stn,52.7734,-0.143,NGED,
Spalding Park Road 33 11kv S Stn,52.7957,-0.1543,NGED,-14.51
Spilsby 33 11kv S Stn,53.1686,0.1046,NGED,6.33
Spon Street 33/6.6kv,52.4089,-1.5175,NGED,11.04
Spondon 11kv S Stn,52.9065,-1.3985,NGED,8.72
Spring Gardens 33/11kv,52.7203,-2.739,NGED,7.19
St Agnes,50.2973,-5.1996,NGED,0.51
St Anns 33 11kv S Stn,52.957,-1.1433,NGED,24.85
St Arvans,51.678,-2.7146,NGED,3.28
St Austell,50.3498,-4.7893,NGED,11.69
St Buryan,50.0832,-5.6294,NGED,3.61
St Clears,51.8452,-4.4992,NGED,10.75
St Columb Major,50.4377,-4.9191,NGED,6.71
St Davids,51.8823,-5.2528,NGED,3.47
St Florence,51.6802,-4.782,NGED,1.57
St Ives,50.1921,-5.4928,NGED,4.91
St Keverne,50.0532,-5.1278,NGED,7.48
St Levan Road,50.384,-4.1713,NGED,16.84
St Mawgan,50.4273,-5.0057,NGED,0.24
St Mellons,51.5294,-3.1073,NGED,9.74
St Neot,50.4775,-4.551,NGED,3.43
St Pauls Bsp 11kv,51.459,-2.5829,NGED,-57.54
St Thomas,50.7199,-3.5459,NGED,13.15
St Tudy,50.5347,-4.7235,NGED,2.53
St Twynells,51.6394,-4.9591,NGED,2.21
St Weonards 66/11kv,51.9096,-2.7288,NGED,1.46
Stafford 132/25/11kv,52.8104,-2.1221,NGED,42.61
Stafford South 11kv,52.7944,-2.1065,NGED,41.07
Stamford 11kv S Stn,52.6517,-0.4717,NGED,4.37
Stancombe Quarry,51.4166,-2.7167,NGED,0.73
Staplegrove,51.0254,-3.1204,NGED,11.27
Star Aluminium 33/11kv,52.5213,-2.4626,NGED,4.41
Station Street 33 11kv S Stn,52.8042,-1.6321,NGED,11.43
Staveley 11kv S Stn,53.2672,-1.3851,NGED,10.9
Steeple Claydon,51.9292,-0.9912,NGED,
Stentaway,50.3643,-4.0857,NGED,7.12
Steynton,51.7293,-5.0179,NGED,4.1
Stickney 33 11kv S Stn,53.0887,0.0197,NGED,4.13
Stockton 33/11kv,52.3007,-2.4217,NGED,1.59
Stoke Bishop,51.4833,-2.6322,NGED,12.6
Stokenham,50.2751,-3.682,NGED,0.17
Stoneygate 33 6 6kv S Stn,52.6161,-1.1014,NGED,4.64
Stourport 132/66/33/11kv Reporting,52.3382,-2.269,NGED,14.5
Stow 66/11kv,51.9243,-1.77,NGED,1.05
Stowfield 33/11kv,51.8545,-2.5989,NGED,4.07
Strand Swansea,51.6223,-3.9406,NGED,5.17
Stratford 66/11kv,52.1945,-1.7413,NGED,4.23
Stratton,50.8272,-4.5063,NGED,10.91
Strensham 66/11kv,52.0677,-2.1403,NGED,0.34
Sudbrook Primary,51.5862,-2.7118,NGED,50.93
Sully Grid Primary,51.4099,-3.229,NGED,22.91
Sutton Junction 33 11kv S Stn,53.1237,-1.2316,NGED,8.45
Swansea North Local,51.6842,-3.964,NGED,14
Swansea Road Merthyr,51.7523,-3.3991,NGED,5.96
Swansea Trading Estate,51.6464,-3.989,NGED,9.78
Swansea Waterfront,51.6212,-3.92,NGED,29.69
Swinderby 33 11kv S Stn,53.1675,-0.7129,NGED,1.92
Syston 33 11kv S Stn,52.7008,-1.0613,NGED,21.6
Taff Bank,51.4711,-3.1806,NGED,6.82
Talbot Green Primary,51.5497,-3.3891,NGED,18.36
Talbot St 33 11kv S Stn,52.9557,-1.1544,NGED,6.14
Talke 33/11kv,53.0823,-2.2633,NGED,12.83
Tamar Pumping Stn,50.5295,-4.208,NGED,0.89
Tamworth Grid 11kv S Stn,52.6085,-1.6571,NGED,
Tamworth Town 11kv S Stn,52.6323,-1.6878,NGED,12.97
Tattenhoe Primary,52.0002,-0.796,NGED,
Tattershall 33 11kv S Stn,53.0866,-0.224,NGED,11.83
Taunton Local,51.0174,-3.1007,NGED,4.75
Tavistock,50.5535,-4.1617,NGED,2.67
Tean 33/11kv,52.9586,-1.9903,NGED,17.1
Teignmouth Gasworks,50.5472,-3.5157,NGED,10.76
Tenbury 33/11kv,52.317,-2.5938,NGED,10.58
Tenby,51.6719,-4.7096,NGED,3.59
Teversal 33/11kv,53.1485,-1.2919,NGED,5.09
Tewkesbury 66/11kv,51.9861,-2.1629,NGED,5.7
Thenford 33 11kv S Stn,52.0774,-1.2411,NGED,4.45
Thoresby 33 11kv S Stn,53.1984,-1.0408,NGED,11.65
Thrapston 33 11kv S Stn,52.3921,-0.5512,NGED,4.43
Thurmaston 33 11kv S Stn,52.6644,-1.0941,NGED,5.45
Thurnby 33 11kv S Stn,52.6348,-1.0525,NGED,6.82
Tinkers Cross,50.8815,-3.9263,NGED,1.1
Tinwell Road Ketton 33 11kv S Stn,52.6377,-0.5431,NGED,7.11
Tir John Primary,51.6252,-3.8974,NGED,11.88
Tiverton Junction,50.8962,-3.3816,NGED,4.16
Tiverton Moorhayes,50.9167,-3.4802,NGED,7.36
Tiverton South,50.899,-3.4864,NGED,9.93
Tonypandy,51.6277,-3.4554,NGED,5.86
Topsham,50.6845,-3.4647,NGED,2.77
Torpoint Antony,50.3659,-4.2587,NGED,6.79
Torpoint Town,50.3767,-4.2148,NGED,2.23
Torrington Avenue 33 11kv S Stn,52.3994,-1.5716,NGED,6.61
Torwood,50.4607,-3.5199,NGED,13.06
Torycombe,50.4324,-4.0257,NGED,8.38
Totnes,50.434,-3.6895,NGED,4.99
Toton 11kv S Stn,52.9168,-1.2645,NGED,3.22
Tournament Fields 33/11kv S Stn,52.2652,-1.6111,NGED,20.06
Towcester 33 11kv S Stn,52.1246,-0.9797,NGED,-3.12
Trebal,50.3747,-4.7619,NGED,12.16
Tredegar,51.7712,-3.2417,NGED,7.64
Tregaron,52.2148,-3.9371,NGED,1.68
Trent Alloys 33 11kv S Stn,52.8502,-1.5644,NGED,3.52
Trent Lane 33 11kv S Stn,52.8503,-1.3453,NGED,13.35
Trethomas,51.5953,-3.1699,NGED,11.84
Trevaughan,51.8634,-4.3213,NGED,7.95
Trowbridge Primary,51.5115,-3.0989,NGED,16.35
Trull,51.0013,-3.1217,NGED,10.02
Truro Shortlanesend,50.278,-5.0699,NGED,9.35
Truro Treyew Road,50.2573,-5.0658,NGED,9.41
Trusthorpe 33 11kv S Stn,53.326,0.2642,NGED,3.82
Tuffley 33/11kv,51.8372,-2.2621,NGED,9.21
Tumble,51.7897,-4.1195,NGED,4.5
Tunnel Bank 33/11kv,52.7586,-0.3646,NGED,2.66
Tuxford 33 11kv S Stn,53.2344,-0.9022,NGED,3.1
Twelveheads.,50.2368,-5.1346,NGED,7.72
Twerton,51.3816,-2.3964,NGED,4.89
Union Street 33 11kv S Stn,52.369,-1.2656,NGED,2.1
University Of Warwick 33/11kv,52.3839,-1.5646,NGED,10.94
Uplands Swansea,51.618,-3.9652,NGED,14.58
Upper Bank,51.6406,-3.9278,NGED,1.46
Upper Boat Primary,51.5757,-3.2974,NGED,16.69
Uppingham 33 11kv S Stn,52.5955,-0.719,NGED,6.06
Upton Valley,50.4694,-3.5323,NGED,10.64
Upton Warren 132/66/11kv Reporting,52.3091,-2.0962,NGED,-0.18
Usk,51.7154,-2.919,NGED,3.16
Victoria Road,51.5938,-3.7983,NGED,5.21
Victoria Road 33 11kv S Stn,51.9975,-0.7186,NGED,10.66
Waddington 33/11kv,53.1752,-0.5358,NGED,10.86
Wadebridge,50.522,-4.8142,NGED,7.49
Walsgrave 33 11kv S Stn,52.4255,-1.4463,NGED,12.89
Walton 33/11kv,53.2165,-1.4661,NGED,5.78
Wardentree Park 33 11kv S Stn,52.8136,-0.1342,NGED,11.6
Warndon 132/11kv,52.2177,-2.1935,NGED,38.76
Warsop 33/11kv,53.2165,-1.1404,NGED,19.42
Warth Lane 33 11kv S Stn,53.1429,0.307,NGED,14.76
Warwick 11kv S Stn,52.2862,-1.562,NGED,35.2
Watchfield,51.2191,-2.9325,NGED,13.04
Waterlake Primary,50.8472,-2.9508,NGED,9.78
Waterton Industrial Primary,51.5012,-3.5351,NGED,19.13
Watling Street Idno,52.506,-1.3362,NGED,
Watnall 33 11kv S Stn,53.008,-1.2505,NGED,19.02
Wattstown,50.9702,-2.9946,NGED,4.78
Wavendon Gate 33 11kv S Stn,52.0241,-0.6881,NGED,15.86
Wedmore,51.2297,-2.8068,NGED,3.97
Weedon 33 11kv S Stn,52.2348,-1.0811,NGED,0.36
Weir Hill 33/11kv,52.7046,-2.7187,NGED,0.88
Wellesbourne,52.1975,-1.6036,NGED,
Wellingborough 11kv,52.2924,-0.6846,NGED,26.98
Wellingborough Road 33 11kv S Stn,52.2519,-0.8514,NGED,15.53
Wellington Primary,50.9915,-3.2478,NGED,2.73
Wellington St 33 11kv S Stn,52.8023,-1.6527,NGED,16.42
Wellington Town,50.9792,-3.2216,NGED,11.03
Wells,51.2074,-2.6493,NGED,6.73
Welton 33 11kv S Stn,52.305,-1.1295,NGED,8.83
Wern,51.6337,-3.8276,NGED,17.17
Wessington 33 11kv S Stn,53.1179,-1.4324,NGED,1.27
West Bridgford 33 11kv S Stn,52.925,-1.1398,NGED,7.43
West Cross,51.588,-4.0017,NGED,7.97
West Deeping 33 11kv S Stn,52.6716,-0.356,NGED,2.21
West Haddon 33 11kv S Stn,52.3547,-1.0455,NGED,3.69
Westborough 33 11kv S Stn,52.9954,-0.7385,NGED,4.73
Western Approach,51.5488,-2.6503,NGED,5.35
Westfa,51.7002,-4.1289,NGED,12.95
Westhorpe 33 11kv S Stn,53.3089,-1.3165,NGED,2.48
Weston Central,51.346,-2.9782,NGED,11.8
Weston Locking Rd,51.3465,-2.9559,NGED,27.09
Weston Mill,50.4026,-4.1711,NGED,9.81
Weston-In-Gordano,51.4639,-2.7961,NGED,2.11
Westwick,51.3504,-2.8958,NGED,10.16
Westwood 33 11kv S Stn,53.0565,-1.315,NGED,3.45
Whaplode Drove 33 11kv S Stn,52.698,-0.052,NGED,3.02
Whatley Quarry,51.2291,-2.3882,NGED,-0.81
Wheal Reeth,50.1259,-5.3727,NGED,4.05
Whetstone 33 11kv S Stn,52.5678,-1.1847,NGED,6.89
Whiddon Down,50.7179,-3.8674,NGED,4.23
Whitchurch,51.4115,-2.5602,NGED,2.83
Whitfield 33/11kv Reporting,53.0795,-2.178,NGED,11.8
Whitland,51.8305,-4.596,NGED,4.77
Whitley 11kv S Stn,52.3933,-1.4832,NGED,16.34
Whitley South Idno Primary,52.3728,-1.4889,NGED,
Whittleford 33/11kv,52.5265,-1.515,NGED,8.08
Wicken 33 11kv S Stn,52.048,-0.9047,NGED,7.42
Wigston 11kv S Stn,52.5773,-1.1438,NGED,
Wigston Magna 33 11kv S Stn,52.5848,-1.1021,NGED,3.53
Willenhall 132/25kv,52.5768,-2.0598,NGED,36.98
Willesley 33 11kv S Stn,52.733,-1.4998,NGED,9.29
Willoughby 11kv S Stn,52.8256,-1.0713,NGED,6.2
Wingerworth 33/11kv,53.2071,-1.4198,NGED,3.65
Winscombe,51.3193,-2.8363,NGED,7.09
Winslow 33 11kv S Stn,51.9518,-0.8839,NGED,5.75
Winterbourne,51.5243,-2.5135,NGED,7.01
Wise Street 33 11kv S Stn,52.2833,-1.5329,NGED,9.49
Witheridge,50.9034,-3.7048,NGED,0.23
Withycombe Raleigh,50.6321,-3.394,NGED,11.41
Wittering 33 11kv S Stn,52.6117,-0.4394,NGED,4.03
Wiveliscombe,51.0357,-3.3087,NGED,9.23
Wollaton Road 33 11kv S Stn,52.9553,-1.1838,NGED,8.08
Wolverhampton 132/33/11kv,52.5814,-2.1136,NGED,34.13
Wolverhampton Waste Services 33kv,52.581,-2.1149,NGED,
Wolverhampton West 132/33kv & 33/11kv,52.5738,-2.1855,NGED,13.05
Wolverton 33/11kv,52.0634,-0.8221,NGED,11.44
Wood End 33/11 Kv,52.5822,-1.6299,NGED,10.24
Wood Lane 33 11kv S Stn,52.5525,-1.4577,NGED,
Wood Street,51.4768,-3.1774,NGED,19.07
Woodbeck 33 11kv S Stn,53.2977,-0.8341,NGED,1.06
Woodbury,50.6673,-3.4145,NGED,2.47
Woodford Halse 33 11kv S Stn,52.1735,-1.2078,NGED,5.31
Woodhall Spa 33 11kv S Stn,53.1421,-0.2404,NGED,0.88
Woodland Way,51.4708,-2.5169,NGED,-20.13
Woodville 33/11kv,52.7737,-1.5316,NGED,14.28
Woofferton 66/11kv,52.3073,-2.7271,NGED,9.34
Wootton 33 11kv S Stn,52.2054,-0.8743,NGED,9.1
Worfield 33/11kv,52.5727,-2.3364,NGED,3.68
Worksop West 33 11kv S Stn,53.3144,-1.1383,NGED,10.73
Worthington 33 11kv S Stn,52.7825,-1.3794,NGED,2.25
Wragby 33 11kv S Stn,53.2867,-0.3076,NGED,3.91
Wrangle 33 11kv S Stn,53.041,0.1201,NGED,4.39
Wribbenhall 33/11kv,52.3854,-2.3076,NGED,9.14
Yelverton,50.4942,-4.0821,NGED,6.02
Ynys Street,51.5973,-3.7754,NGED,5.97
Ynysfeio,51.6695,-3.5256,NGED,2.66
Ystradgynlais Grid,51.7648,-3.7554,NGED,-19.26
Adria,54.81733873,-7.46700536,NIEN,3.72401
Aghagallon,54.51265255,-6.28781348,NIEN,0
Ahoghill Central,54.84965212,-6.3458465,NIEN,7.08312
Airport Road,54.60386809,-5.89818123,NIEN,8.91874
Annsborough Central,54.26700164,-5.92624898,NIEN,0
Ardboe Central,54.61478225,-6.53855367,NIEN,0
Ardstraw Central,54.73010704,-7.45218148,NIEN,0
Armagh Central,54.3295639,-6.65334647,NIEN,1.22876
Armagh North,54.36015661,-6.6528171,NIEN,2.27932
Ballinamallard West,54.4314384,-7.62704156,NIEN,5.35388
Ballycastle Central,55.1971162,-6.27893127,NIEN,0
Ballyclare Central,54.7616413,-6.01042708,NIEN,4.93279
Ballyfodrin Central,54.43823386,-6.49465135,NIEN,0.72393
Ballygawley South,54.45959945,-7.04053841,NIEN,2.31069
Ballygowan Central,54.50492047,-5.78276927,NIEN,3.84399
Ballyhenry,54.69351532,-5.963781,NIEN,18.15987
Ballykelly Central,55.04140814,-7.02189947,NIEN,0.86243
Ballykinler Central,54.25118474,-5.79841953,NIEN,3.15216
Ballymacarrett,54.59659265,-5.88705057,NIEN,7.66484
Ballymacash,54.5242367,-6.0724805,NIEN,0.83892
Ballymena East,54.87267469,-6.26102518,NIEN,5.5753
Ballymena North,54.87417817,-6.28493948,NIEN,0.99644
Ballymoney West,55.0636573,-6.53875897,NIEN,5.32132
Ballynahinch North,54.40602342,-5.90121159,NIEN,1.42706
Ballysillan,54.62025843,-5.96316091,NIEN,5.15846
Balmoral,54.56539301,-5.97864493,NIEN,21.48576
Banbridge North,54.35219094,-6.27921521,NIEN,1.74555
Bangor Central,54.6619038,-5.66469339,NIEN,12.85766
Bangor East,54.65528814,-5.63514168,NIEN,10.41663
Bangor West,54.65665256,-5.68909315,NIEN,5.92404
Belleek South,54.47693725,-8.08679,NIEN,0
Benburb Central,54.40374741,-6.78231996,NIEN,0.84142
Bentra Central,54.75721198,-5.7359509,NIEN,4.14995
Bessbrook North,54.20600467,-6.36696686,NIEN,0.75321
Bessbrook South,54.18528928,-6.39279547,NIEN,0.62762
Bishopscourt Central,54.30279204,-5.60959114,NIEN,0.75766
Bog Meadows,54.57474277,-5.96636537,NIEN,9.02171
Braniel,54.57633038,-5.86852688,NIEN,5.68188
Brookhill Central,54.53079587,-6.15688225,NIEN,0
Buckna Central,54.90439346,-6.0905374,NIEN,0.42982
Bushmills West,55.20127279,-6.53027916,NIEN,9.37849
Campsie Central,55.03623637,-7.20185349,NIEN,5.59026
Cargos Hill,54.65463357,-5.72532783,NIEN,2.97506
Carn Central,54.45012092,-6.40976141,NIEN,0
Carnlough Central,54.97965394,-5.99531459,NIEN,1.91389
Carrickfergus North,54.73625044,-5.80786305,NIEN,6.42533
Carrickfergus West,54.71277427,-5.84539217,NIEN,1.56616
Carrickblacker Central,54.40991975,-6.41608629,NIEN,3.12098
Carrickmore North,54.61163507,-7.05091244,NIEN,0
Carrowdore Central,54.57117165,-5.56223174,NIEN,10.55334
Carrs Glen,54.62856256,-5.96864858,NIEN,9.15362
Carryduff Central,54.51465891,-5.88323306,NIEN,12.6253
Castlederg South,54.70513537,-7.59126981,NIEN,0
Caw,55.00470824,-7.2718403,NIEN,7.92299
City Hospital,54.5873506,-5.93871755,NIEN,12.54497
Claudy Central,54.91697947,-7.18466931,NIEN,1.04342
Cloghy Central,54.42516572,-5.50673376,NIEN,1.34522
Cloughmills Central,55.00267118,-6.33949752,NIEN,5.68794
Coagh West,54.66141296,-6.68694633,NIEN,5.39005
Coleraine Town,55.1335676,-6.65824733,NIEN,3.52878
Coleraine West,55.13416758,-6.6952415,NIEN,1.15305
Comber Central,54.54821571,-5.75020342,NIEN,7.06268
Cookstown South,54.62354111,-6.73279496,NIEN,5.25705
Cookstown West,54.6248707,-6.75427188,NIEN,0
Creagh Central,54.76890877,-6.51862005,NIEN,0
Crossgar East,54.39196873,-5.747649,NIEN,1.22084
Crosshill Central,54.63001224,-6.20515986,NIEN,6.77183
Crouck Central,54.70447669,-6.99607746,NIEN,0
Cullybackey Central,54.89165539,-6.33931993,NIEN,2.28922
Cushendall Central,55.07093075,-6.05761978,NIEN,0
Dargan Road,54.63122427,-5.91050874,NIEN,18.58183
Derryleckagh Central,54.17716493,-6.28501005,NIEN,0
Derrylin Central,54.18266926,-7.56010677,NIEN,1.15937
Donaghadee West,54.64962457,-5.56401951,NIEN,8.35955
Downpatrick East,54.322583,-5.68733365,NIEN,10.57922
Downpatrick North,54.3426236,-5.739529,NIEN,2.70524
Draperstown North,54.7950375,-6.77254657,NIEN,1.54878
Dromara,54.3808647,-6.00692866,NIEN,1.7536
Dromore North,54.52121742,-7.43410711,NIEN,6.22999
Dromore South,54.40188522,-6.14828571,NIEN,6.94272
Drumahoe West,54.97734975,-7.29256301,NIEN,3.29789
Drumcairne Central,54.572522,-6.660515,NIEN,6.12798
Dundonald,54.59381435,-5.81168365,NIEN,4.27302
Dundonald East,54.59618793,-5.78626962,NIEN,8.89068
Dungannon North,54.50918508,-6.76682277,NIEN,1.22318
Dungiven Central,54.93938926,-6.90953265,NIEN,4.10804
Dunmurry South,54.54487013,-6.02143477,NIEN,7.91216
Dunmurry West,54.55831566,-6.01732527,NIEN,10.00561
East Lough Road,54.48441941,-6.3425402,NIEN,0
Ederny South,54.51644734,-7.66840411,NIEN,3.12974
Enniskillen East,54.35666454,-7.60161787,NIEN,1.24077
Enniskillen Town,54.34787046,-7.63103313,NIEN,10.88185
Enniskillen West,54.34940788,-7.66299315,NIEN,2.81526
Falls,54.58341878,-5.98572079,NIEN,11.20259
Fivemiletown Central,54.3789853,-7.31587216,NIEN,5.75
Fortwilliam,54.62657471,-5.94025095,NIEN,6.03191
Foyle Road,54.99156329,-7.31942484,NIEN,10.52061
Garvagh North,55.00058105,-6.65325307,NIEN,3.8631
Glenavy West,54.58853986,-6.24478965,NIEN,0
Granville Central,54.49136602,-6.80653745,NIEN,11.176
Halfpenny Valley,54.4597478,-6.35928522,NIEN,3.8
Harryville,54.86195947,-6.27732505,NIEN,10.99671667
Holywood East,54.64541775,-5.81583379,NIEN,12
Holywood West,54.63219416,-5.84582776,NIEN,8.65336
Inver,54.84614267,-5.82931108,NIEN,13.36994
Keady Central,54.24610339,-6.71005661,NIEN,0
Kells Central,54.81139485,-6.21467089,NIEN,0.84316
